Portfolio Name,Company Name,Asset Name,Sub-industry,Asset Type,Latitude,Longitude,Address,Asset ID,Country,Country Code,Realm,Biome,Ecosystem Functional Group,River Basin,Priority,Sensitive Locations,Biodiversity Importance (Aggregated),High Ecosystem Integrity (Aggregated),Decline in Ecosystem Integrity (Aggregated),Physical Water Risk (Aggregated),Ecosystem Services Provision (Aggregated)
SFI,Confidential,Confidential878,Diversified Metals & Mining,Mining,18.579151,45.356573,,20362,Saudi Arabia,SAU,Palearctic,Deserts & Xeric Shrublands,Arabian desert,Arabian Peninsula,1,0.625,0.0969,0.9546,0,0.625,0.0668
SFI,China National Building Materials Group Co Ltd,Anhui Guangde Hongshan Nanfang Cement Co Ltd,Diversified Metals & Mining,Mining,31.063867,119.594509,,17809,China,CHN,Palearctic,Temperate Broadleaf & Mixed Forests,Changjiang Plain evergreen forests,Yangtze,0,0.5655,0.2407,0.5655,0.3948,0.6652,0.3754
SFI,China National Building Materials Group Co Ltd,Lixian Zhonglian Tianguang Cement Co Ltd,Diversified Metals & Mining,Mining,34.046654,113.153132,,17810,China,CHN,Palearctic,Temperate Broadleaf & Mixed Forests,Huang He Plain mixed forests,Yellow Sea & East China Sea,0,0.5284,0.0332,0.5284,0.467,1,0.1589
SFI,China National Building Materials Group Co Ltd,Changshan Nanfang Cement Co Ltd,Diversified Metals & Mining,Mining,28.968326,118.456606,,17811,China,CHN,Palearctic,Temperate Broadleaf & Mixed Forests,Changjiang Plain evergreen forests,Yellow Sea & East China Sea,1,0.7176,0.502,0.7176,0.7405,0.5626,0.5453
SFI,China National Building Materials Group Co Ltd,Guilin Nanfang Cement Co Ltd,Diversified Metals & Mining,Mining,24.93015,110.829581,,17812,China,CHN,Indomalayan,Tropical & Subtropical Moist Broadleaf Forests,Jian Nan subtropical evergreen forests,Zhu Jiang,1,0.7107,0.774,0.7107,0.5261,0.531,0.6412
SFI,China National Building Materials Group Co Ltd,Hunan Liyang Nanfang Cement Co Ltd,Diversified Metals & Mining,Mining,26.340874,112.811689,,17813,China,CHN,Indomalayan,Tropical & Subtropical Moist Broadleaf Forests,Jian Nan subtropical evergreen forests,Xiang Jiang,0,0.5663,0.1635,0.6506,0.4907,0.5663,0.3801
SFI,China National Building Materials Group Co Ltd,Lunan Zhonglian Cement Co Ltd,Diversified Metals & Mining,Mining,35.212561,117.02735,,17814,China,CHN,Palearctic,Temperate Broadleaf & Mixed Forests,Huang He Plain mixed forests,Yellow Sea & East China Sea,0,0.5643,0.5643,0.5366,0.4101,1,0.1909
SFI,China National Building Materials Group Co Ltd,Hunan Suxian Nanfang Cement Co Ltd,Diversified Metals & Mining,Mining,25.574033,113.006797,,17815,China,CHN,Indomalayan,Tropical & Subtropical Moist Broadleaf Forests,Jian Nan subtropical evergreen forests,Zhu Jiang,0,0.5527,0.3586,0.6935,0.5133,0.5527,0.5432
SFI,China National Building Materials Group Co Ltd,Jiangxi Luxi Nanfang Cement Co Ltd,Diversified Metals & Mining,Mining,27.6541,114.074635,,17816,China,CHN,Palearctic,Temperate Broadleaf & Mixed Forests,Changjiang Plain evergreen forests,Yangtze,0,0.5435,0.1368,0.6939,0.4542,0.5435,0.4905
SFI,China National Building Materials Group Co Ltd,Jiangxi Yushan Nanfang Cement Co Ltd,Diversified Metals & Mining,Mining,28.699945,118.314033,,17817,China,CHN,Indomalayan,Tropical & Subtropical Moist Broadleaf Forests,Jian Nan subtropical evergreen forests,Yangtze,0,0.5501,0.4863,0.7009,0.3731,0.5501,0.5082
SFI,China National Building Materials Group Co Ltd,Jiangsu Xushe Nanfang Cement Co Ltd,Diversified Metals & Mining,Mining,31.357426,119.581498,,17818,China,CHN,Palearctic,Temperate Broadleaf & Mixed Forests,Changjiang Plain evergreen forests,Yellow Sea & East China Sea,0,0.5324,0.308,0.5324,0.341,0.7401,0.3654
SFI,China National Building Materials Group Co Ltd,Xuzhou Zhonglian Cement Co Ltd,Diversified Metals & Mining,Mining,34.474876,117.459992,,17819,China,CHN,Palearctic,Temperate Broadleaf & Mixed Forests,Huang He Plain mixed forests,Yellow Sea & East China Sea,0,0.5076,0.5076,0.5075,0.3845,1,0.2086
SFI,China National Building Materials Group Co Ltd,Hunan Jinlei South Cement Co Ltd,Diversified Metals & Mining,Mining,25.959229,113.238784,,17820,China,CHN,Indomalayan,Tropical & Subtropical Moist Broadleaf Forests,Jian Nan subtropical evergreen forests,Xiang Jiang,0,0.5663,0.2759,0.7323,0.5276,0.5663,0.5065
SFI,Confidential,Confidential879,Diversified Metals & Mining,Mining,31.436323,39.130651,,20363,Saudi Arabia,SAU,Palearctic,Deserts & Xeric Shrublands,North Arabian desert,Arabian Peninsula,1,0.7525,0.7525,0.9509,0.5299,0.625,0.0429
SFI,India Cements Ltd,India Cements Ltd,Diversified Metals & Mining,Mining,14.665693,78.457835,,18565,India,IND,Indomalayan,Deserts & Xeric Shrublands,Deccan thorn scrub forests,Bay of Bengal (254),1,0.6017,0.2409,0.6017,0.519,0.8667,0.3858
SFI,Confidential,Confidential529,Diversified Metals & Mining,Mining,47.785671,86.848935,,20013,China,CHN,Palearctic,Deserts & Xeric Shrublands,Junggar Basin semi-desert,Irtysh,0,0.5541,0.2083,0.9227,0.5215,0.5541,0.2882
SFI,China National Building Materials Group Co Ltd,Xingtai Zhonglian Cement Co Ltd,Diversified Metals & Mining,Mining,37.304121,114.519444,,17821,China,CHN,Palearctic,Temperate Broadleaf & Mixed Forests,Central China Loess Plateau mixed forests,Yellow Sea & East China Sea,0,0.4989,0.025,0.4989,0.4438,1,0.3266
SFI,China National Building Materials Group Co Ltd,Wulanchabu Zhonglian Cement Co Ltd,Diversified Metals & Mining,Mining,41.712344,113.106074,,17822,China,CHN,Palearctic,"Temperate Grasslands"",""Savannas & Shrublands",Mongolian-Manchurian grassland,WMOBB 292,0,0.5385,0.0206,0.8477,0.5062,0.5385,0.2554
SFI,China National Building Materials Group Co Ltd,Dengfeng Zhonglian Dengdian Cement Co Ltd,Diversified Metals & Mining,Mining,34.372875,113.065124,,17823,China,CHN,Palearctic,Temperate Broadleaf & Mixed Forests,Huang He Plain mixed forests,Yellow Sea & East China Sea,0,0.545,0.0059,0.545,0.4847,1,0.1915
SFI,China National Building Materials Group Co Ltd,Xichuan Zhonglian Cement Co Ltd,Diversified Metals & Mining,Mining,33.10019,111.48759,,17824,China,CHN,Palearctic,Temperate Broadleaf & Mixed Forests,Qin Ling Mountains deciduous forests,Han Shui,1,0.6539,0.0804,0.67,0.4767,0.6539,0.2442
SFI,China National Building Materials Group Co Ltd,Nanyang Zhonglian Wolong Cement Co Ltd,Diversified Metals & Mining,Mining,33.119861,112.603502,,17825,China,CHN,Palearctic,Temperate Broadleaf & Mixed Forests,Changjiang Plain evergreen forests,Han Shui,0,0.5498,0.0341,0.5498,0.4919,0.75,0.19
SFI,Abadeh Cement Co,Abadeh Cement Co,Diversified Metals & Mining,Mining,30.945723,52.893091,,17309,Iran,IRN,Palearctic,Deserts & Xeric Shrublands,Central Persian desert basins,Iranian Plateau,0,0.5259,0.0274,0.8703,0.4882,0.5259,0.1672
SFI,Confidential,Confidential530,Diversified Metals & Mining,Mining,47.993982,122.759874,,20014,China,CHN,Palearctic,Temperate Broadleaf & Mixed Forests,Manchurian mixed forests,Amur,0,0.5239,0.0317,0.7066,0.5239,0.5,0.2319
SFI,Confidential,Confidential594,Diversified Metals & Mining,Mining,4.022882,9.676917,,20078,Cameroon,CMR,Afrotropic,{Mangroves},Central African mangroves,Gulf of Guinea,1,0.8557,0.9988,0.8002,0.4385,0.424,0.8557
SFI,Confidential,Confidential595,Diversified Metals & Mining,Mining,4.011708,9.674043,,20079,Cameroon,CMR,Afrotropic,{Mangroves},Central African mangroves,Gulf of Guinea,1,0.8592,1,0.7992,0.436,0.4234,0.8592
SFI,China National Building Materials Group Co Ltd,Jiangsu Xinjie Nanfang Cement Co Ltd,Diversified Metals & Mining,Mining,31.324863,119.647243,,17826,China,CHN,Palearctic,Temperate Broadleaf & Mixed Forests,Changjiang Plain evergreen forests,Yellow Sea & East China Sea,0,0.5277,0.3087,0.5277,0.2961,0.7401,0.376
SFI,China National Building Materials Group Co Ltd,Hunan Qidongfang Cement Co Ltd,Diversified Metals & Mining,Mining,26.750371,112.082645,,17827,China,CHN,Indomalayan,Tropical & Subtropical Moist Broadleaf Forests,Jian Nan subtropical evergreen forests,Xiang Jiang,0,0.5688,0.0923,0.6168,0.478,0.5688,0.3458
SFI,China National Building Materials Group Co Ltd,Huzhou Coal Mountain Southern Cement Co Ltd,Diversified Metals & Mining,Mining,31.09595,119.751184,,17828,China,CHN,Palearctic,Temperate Broadleaf & Mixed Forests,Changjiang Plain evergreen forests,Yellow Sea & East China Sea,0,0.5466,0.3189,0.5466,0.4092,0.7401,0.3582
SFI,China National Building Materials Group Co Ltd,Huzhou Nanfang Cement Co Ltd,Diversified Metals & Mining,Mining,30.935667,119.946136,,17829,China,CHN,Palearctic,Temperate Broadleaf & Mixed Forests,Changjiang Plain evergreen forests,Yellow Sea & East China Sea,0,0.5622,0.2981,0.5622,0.4166,0.7401,0.3314
SFI,China National Building Materials Group Co Ltd,Dongping Zhonglian Meijing Cement Co Ltd,Diversified Metals & Mining,Mining,35.997904,116.372894,,17830,China,CHN,Palearctic,Temperate Broadleaf & Mixed Forests,Huang He Plain mixed forests,Yellow River,0,0.5245,0.0279,0.5245,0.4577,1,0.1848
SFI,China National Building Materials Group Co Ltd,Tonglu Nanfang Cement Co Ltd,Diversified Metals & Mining,Mining,29.827321,119.686369,,17831,China,CHN,Palearctic,Temperate Broadleaf & Mixed Forests,Changjiang Plain evergreen forests,Yellow Sea & East China Sea,1,0.7206,0.1791,0.7206,0.517,0.5666,0.894
SFI,China National Building Materials Group Co Ltd,Qingzhou Zhonglian Cement Co Ltd,Diversified Metals & Mining,Mining,36.759877,118.40628,,17832,China,CHN,Palearctic,Temperate Broadleaf & Mixed Forests,Huang He Plain mixed forests,Yellow Sea & East China Sea,0,0.5338,0.0294,0.5338,0.4701,1,0.2004
SFI,China National Building Materials Group Co Ltd,Anhui Guangde Nanfang Cement Co Ltd,Diversified Metals & Mining,Mining,31.041526,119.602215,,17833,China,CHN,Palearctic,Temperate Broadleaf & Mixed Forests,Changjiang Plain evergreen forests,Yellow Sea & East China Sea,0,0.5691,0.2289,0.5691,0.396,0.75,0.3718
SFI,China National Building Materials Group Co Ltd,Huzhou Huaikan South Cement Co Ltd,Diversified Metals & Mining,Mining,31.091001,119.68622,,17834,China,CHN,Palearctic,Temperate Broadleaf & Mixed Forests,Changjiang Plain evergreen forests,Yellow Sea & East China Sea,0,0.5504,0.3172,0.5504,0.401,0.7401,0.3549
SFI,China National Building Materials Group Co Ltd,Rizhao Zhonglian Cement Co Ltd,Diversified Metals & Mining,Mining,35.659014,118.831003,,17835,China,CHN,Palearctic,Temperate Broadleaf & Mixed Forests,Huang He Plain mixed forests,Yellow Sea & East China Sea,0,0.5733,0.0401,0.5733,0.4701,0.75,0.1795
SFI,China National Building Materials Group Co Ltd,Jiangsu Liyang Nanfang Cement Co Ltd,Diversified Metals & Mining,Mining,31.361481,119.330047,,17836,China,CHN,Palearctic,Temperate Broadleaf & Mixed Forests,Changjiang Plain evergreen forests,Yellow Sea & East China Sea,0,0.5937,0.3077,0.5937,0.4133,0.75,0.4102
SFI,China National Building Materials Group Co Ltd,Jiangxi Taihe Nanfang Cement Co Ltd,Diversified Metals & Mining,Mining,26.816525,114.860425,,17837,China,CHN,Palearctic,Temperate Broadleaf & Mixed Forests,Changjiang Plain evergreen forests,Yangtze,0,0.5503,0.0629,0.7705,0.5327,0.5503,0.4601
SFI,China National Building Materials Group Co Ltd,Sichuan Lisen Building Materials Group Co Ltd,Diversified Metals & Mining,Mining,31.258403,104.04243,,17838,China,CHN,Palearctic,Temperate Broadleaf & Mixed Forests,Daba Mountains evergreen forests,Yangtze,1,0.7309,0.7309,0.6688,0.4419,0.75,0.6166
SFI,China National Building Materials Group Co Ltd,Sinoma Tianshan (Yunfu) Cement Co Ltd,Diversified Metals & Mining,Mining,23.053386,111.998378,,17839,China,CHN,Indomalayan,Tropical & Subtropical Moist Broadleaf Forests,Jian Nan subtropical evergreen forests,Zhu Jiang,0,0.5167,0.0563,0.6445,0.5162,0.5167,0.5015
SFI,China National Building Materials Group Co Ltd,Sinoma Pingxiang Cement Co Ltd,Diversified Metals & Mining,Mining,27.697284,113.825503,,17840,China,CHN,Indomalayan,Tropical & Subtropical Moist Broadleaf Forests,Jian Nan subtropical evergreen forests,Xiang Jiang,0,0.5378,0.1368,0.6915,0.5061,0.5378,0.4601
SFI,China National Building Materials Group Co Ltd,Sinoma Hengda Cement Co Ltd,Diversified Metals & Mining,Mining,23.035191,111.98069,,17841,China,CHN,Indomalayan,Tropical & Subtropical Moist Broadleaf Forests,Jian Nan subtropical evergreen forests,Zhu Jiang,0,0.5167,0.0466,0.6431,0.5162,0.5167,0.5012
SFI,China National Building Materials Group Co Ltd,Sinoma Anhui Cement Co Ltd,Diversified Metals & Mining,Mining,31.518947,117.752078,,17842,China,CHN,Palearctic,Temperate Broadleaf & Mixed Forests,Changjiang Plain evergreen forests,Yangtze,0,0.5628,0.0658,0.5628,0.365,0.75,0.3526
SFI,China National Building Materials Group Co Ltd,Sinoma Zhuzhou Cement Co Ltd,Diversified Metals & Mining,Mining,27.963997,113.216266,,17843,China,CHN,Indomalayan,Tropical & Subtropical Moist Broadleaf Forests,Jian Nan subtropical evergreen forests,Xiang Jiang,0,0.5378,0.1118,0.5812,0.4134,0.5378,0.3843
SFI,China National Building Materials Group Co Ltd,Sinoma Hanjiang Cement Co Ltd,Diversified Metals & Mining,Mining,33.099215,106.992661,,17844,China,CHN,Palearctic,Temperate Broadleaf & Mixed Forests,Daba Mountains evergreen forests,Han Shui,1,0.6555,0.3142,0.7645,0.4735,0.6555,0.5133
SFI,China National Building Materials Group Co Ltd,Sinoma Changde Cement Co Ltd,Diversified Metals & Mining,Mining,29.311703,111.315189,,17845,China,CHN,Palearctic,Tropical & Subtropical Moist Broadleaf Forests,Guizhou Plateau broadleaf and mixed forests,Xiang Jiang,0,0.5504,0.0924,0.6408,0.464,0.5504,0.3634
SFI,China National Building Materials Group Co Ltd,Sinoma Xiangtan Cement Co Ltd,Diversified Metals & Mining,Mining,27.983793,112.847056,,17846,China,CHN,Palearctic,Temperate Broadleaf & Mixed Forests,Changjiang Plain evergreen forests,Xiang Jiang,0,0.5636,0.1118,0.5636,0.3797,0.75,0.3739
SFI,China National Building Materials Group Co Ltd,Anji Nanfang Cement Co Ltd,Diversified Metals & Mining,Mining,30.723,119.701685,,17847,China,CHN,Palearctic,Temperate Broadleaf & Mixed Forests,Changjiang Plain evergreen forests,Yellow Sea & East China Sea,1,0.6324,0.262,0.6324,0.4303,0.75,0.4887
SFI,China National Building Materials Group Co Ltd,Anyang Zhonglian Cement Co Ltd,Diversified Metals & Mining,Mining,36.167804,114.065663,,17848,China,CHN,Palearctic,Temperate Broadleaf & Mixed Forests,Central China Loess Plateau mixed forests,Yellow Sea & East China Sea,0,0.548,0.0305,0.4591,0.548,1,0.3432
SFI,China National Building Materials Group Co Ltd,Bengbu Zhonglian Cement Co Ltd,Diversified Metals & Mining,Mining,32.782547,117.174059,,17849,China,CHN,Palearctic,Temperate Broadleaf & Mixed Forests,Changjiang Plain evergreen forests,Yellow Sea & East China Sea,0,0.5115,0.0407,0.5115,0.4156,0.75,0.2017
SFI,China National Building Materials Group Co Ltd,Changxing South Cement Co Ltd,Diversified Metals & Mining,Mining,31.110549,119.723102,,17850,China,CHN,Palearctic,Temperate Broadleaf & Mixed Forests,Changjiang Plain evergreen forests,Yellow Sea & East China Sea,0,0.5451,0.3168,0.5451,0.4045,0.7401,0.3579
SFI,China National Building Materials Group Co Ltd,Deqing Qianyuan Nanfang Cement Co Ltd,Diversified Metals & Mining,Mining,30.559768,120.09114,,17851,China,CHN,Palearctic,Temperate Broadleaf & Mixed Forests,Changjiang Plain evergreen forests,Yellow Sea & East China Sea,0,0.4639,0.3535,0.4639,0.3747,0.75,0.4075
SFI,China National Building Materials Group Co Ltd,Deqing Qingnan Cement Co Ltd,Diversified Metals & Mining,Mining,30.593294,120.232341,,17852,China,CHN,Palearctic,Temperate Broadleaf & Mixed Forests,Changjiang Plain evergreen forests,Yellow Sea & East China Sea,0,0.3933,0.3178,0.3933,0.3813,0.75,0.3888
SFI,China National Building Materials Group Co Ltd,Fuyang Sanshi Cement Co Ltd,Diversified Metals & Mining,Mining,29.936659,119.819031,,17853,China,CHN,Palearctic,Temperate Broadleaf & Mixed Forests,Changjiang Plain evergreen forests,Yellow Sea & East China Sea,1,0.6798,0.2073,0.6798,0.4585,0.5666,0.8543
SFI,China National Building Materials Group Co Ltd,Fuyang Shanya Nanfang Cement Co Ltd,Diversified Metals & Mining,Mining,29.875153,119.742454,,17854,China,CHN,Palearctic,Temperate Broadleaf & Mixed Forests,Changjiang Plain evergreen forests,Yellow Sea & East China Sea,1,0.7055,0.1809,0.7055,0.4914,0.5666,0.8836
SFI,China National Building Materials Group Co Ltd,Guangde Xinhang Nanfang Cement Co Ltd,Diversified Metals & Mining,Mining,31.077059,119.578067,,17855,China,CHN,Palearctic,Temperate Broadleaf & Mixed Forests,Changjiang Plain evergreen forests,Yangtze,0,0.5653,0.2406,0.5653,0.3936,0.6652,0.3811
SFI,China National Building Materials Group Co Ltd,Guangxi Jinli Cement Co Ltd,Diversified Metals & Mining,Mining,22.730285,109.407823,,17856,China,CHN,Indomalayan,Tropical & Subtropical Moist Broadleaf Forests,South China-Vietnam subtropical evergreen forests,Zhu Jiang,0,0.5016,0.1582,0.6285,0.4707,0.5016,0.4851
SFI,China National Building Materials Group Co Ltd,Huaihai Zhonglian Cement Co Ltd,Diversified Metals & Mining,Mining,34.415816,117.250549,,17857,China,CHN,Palearctic,Temperate Broadleaf & Mixed Forests,Huang He Plain mixed forests,Yellow Sea & East China Sea,1,0.6667,0.6667,0.5128,0.3872,1,0.2102
SFI,Confidential,Confidential617,Diversified Metals & Mining,Mining,28.301352,30.746827,,20101,Egypt,EGY,Palearctic,Flooded Grasslands & Savannas,Nile Delta flooded savanna,Nile,1,0.7028,0.0021,0.7028,0.3933,0.8125,0.1618
SFI,China National Building Materials Group Co Ltd,Huichang Red Lion Cement Co Ltd,Diversified Metals & Mining,Mining,25.844446,115.865441,,17858,China,CHN,Indomalayan,Tropical & Subtropical Moist Broadleaf Forests,Jian Nan subtropical evergreen forests,Yangtze,1,0.6996,0.0695,0.6998,0.3588,0.6996,0.5349
SFI,China National Building Materials Group Co Ltd,Hunan Anren South Cement Co Ltd,Diversified Metals & Mining,Mining,26.553552,113.304149,,17859,China,CHN,Indomalayan,Tropical & Subtropical Moist Broadleaf Forests,Jian Nan subtropical evergreen forests,Xiang Jiang,0,0.5486,0.2117,0.6892,0.3075,0.5486,0.4295
SFI,China National Building Materials Group Co Ltd,Hunan Guzhang South Cement Co Ltd,Diversified Metals & Mining,Mining,28.720093,109.882675,,17860,China,CHN,Palearctic,Tropical & Subtropical Moist Broadleaf Forests,Guizhou Plateau broadleaf and mixed forests,Xiang Jiang,0,0.5608,0.5045,0.7586,0.4836,0.5608,0.487
SFI,China National Building Materials Group Co Ltd,Hunan Hengnan Nanfang Cement Co Ltd,Diversified Metals & Mining,Mining,26.828354,112.953578,,17861,China,CHN,Indomalayan,Tropical & Subtropical Moist Broadleaf Forests,Jian Nan subtropical evergreen forests,Xiang Jiang,0,0.5663,0.1464,0.6145,0.4372,0.5663,0.392
SFI,China National Building Materials Group Co Ltd,Hunan Ningxiang Nanfang Cement Co Ltd,Diversified Metals & Mining,Mining,28.224586,112.682477,,17862,China,CHN,Palearctic,Temperate Broadleaf & Mixed Forests,Changjiang Plain evergreen forests,Xiang Jiang,0,0.5751,0.131,0.5751,0.406,0.75,0.3611
SFI,China National Building Materials Group Co Ltd,Hunan Pingtang South Cement Co Ltd,Diversified Metals & Mining,Mining,28.053748,112.892786,,17863,China,CHN,Palearctic,Temperate Broadleaf & Mixed Forests,Changjiang Plain evergreen forests,Xiang Jiang,0,0.5587,0.1118,0.5587,0.3889,0.75,0.3645
SFI,China National Building Materials Group Co Ltd,Hunan Shaofeng South Cement Co Ltd,Diversified Metals & Mining,Mining,27.733621,112.218816,,17864,China,CHN,Indomalayan,Tropical & Subtropical Moist Broadleaf Forests,Jian Nan subtropical evergreen forests,Xiang Jiang,1,0.67,0.0398,0.67,0.4489,0.75,0.4039
SFI,China National Building Materials Group Co Ltd,Hunan Taojiang Nanfang Cement Co Ltd,Diversified Metals & Mining,Mining,28.314626,112.236868,,17865,China,CHN,Indomalayan,Tropical & Subtropical Moist Broadleaf Forests,Jian Nan subtropical evergreen forests,Xiang Jiang,0,0.5566,0.1664,0.6635,0.479,0.5566,0.388
SFI,China National Building Materials Group Co Ltd,Huzhou Baixian South Cement Co Ltd,Diversified Metals & Mining,Mining,31.116327,119.700671,,17866,China,CHN,Palearctic,Temperate Broadleaf & Mixed Forests,Changjiang Plain evergreen forests,Yellow Sea & East China Sea,0,0.5457,0.3165,0.5457,0.4019,0.7401,0.3626
SFI,China National Building Materials Group Co Ltd,Huzhou Lijiaxiang Nanfang Cement Co Ltd,Diversified Metals & Mining,Mining,30.943903,119.981004,,17867,China,CHN,Palearctic,Temperate Broadleaf & Mixed Forests,Changjiang Plain evergreen forests,Yellow Sea & East China Sea,0,0.5579,0.2529,0.5579,0.4139,0.7401,0.3227
SFI,China National Building Materials Group Co Ltd,Huzhou Xiaopu Nanfang Cement Co Ltd,Diversified Metals & Mining,Mining,31.04043,119.823512,,17868,China,CHN,Palearctic,Temperate Broadleaf & Mixed Forests,Changjiang Plain evergreen forests,Yellow Sea & East China Sea,0,0.5539,0.2466,0.5539,0.4116,0.7401,0.374
SFI,China National Building Materials Group Co Ltd,Jiangsu Qingshi Cement Co Ltd,Diversified Metals & Mining,Mining,31.245944,119.80014,,17869,China,CHN,Palearctic,Temperate Broadleaf & Mixed Forests,Changjiang Plain evergreen forests,Yellow Sea & East China Sea,0,0.5314,0.3104,0.5314,0.2224,0.7401,0.4132
SFI,China National Building Materials Group Co Ltd,Jiangsu Yangxian Nanfang Cement Co Ltd,Diversified Metals & Mining,Mining,31.241391,119.802962,,17870,China,CHN,Palearctic,Temperate Broadleaf & Mixed Forests,Changjiang Plain evergreen forests,Yellow Sea & East China Sea,0,0.5317,0.311,0.5317,0.2205,0.7401,0.406
SFI,China National Building Materials Group Co Ltd,Jiangxi Anfu Nanfang Cement Co Ltd,Diversified Metals & Mining,Mining,27.40032,114.690611,,17871,China,CHN,Indomalayan,Tropical & Subtropical Moist Broadleaf Forests,Jian Nan subtropical evergreen forests,Yangtze,0,0.5482,0.1335,0.7737,0.487,0.5482,0.492
SFI,China National Building Materials Group Co Ltd,Jiangxi Fengcheng Nanfang Cement Co Ltd,Diversified Metals & Mining,Mining,28.222593,115.698101,,17872,China,CHN,Palearctic,Temperate Broadleaf & Mixed Forests,Changjiang Plain evergreen forests,Yangtze,0,0.5435,0.0817,0.5837,0.4649,0.5435,0.3156
SFI,China National Building Materials Group Co Ltd,Jiangxi Hongsheng Yuhua Cement Co Ltd,Diversified Metals & Mining,Mining,27.369127,114.669097,,17873,China,CHN,Indomalayan,Tropical & Subtropical Moist Broadleaf Forests,Jian Nan subtropical evergreen forests,Yangtze,0,0.5482,0.1335,0.7708,0.4852,0.5482,0.4894
SFI,China National Building Materials Group Co Ltd,Jiangxi Hushan Yanying Cement Co Ltd,Diversified Metals & Mining,Mining,28.700614,118.339868,,17874,China,CHN,Indomalayan,Tropical & Subtropical Moist Broadleaf Forests,Jian Nan subtropical evergreen forests,Yangtze,0,0.5501,0.4893,0.7009,0.3652,0.5501,0.5078
SFI,China National Building Materials Group Co Ltd,Jiangxi Jiujiang Nanfang Cement Co Ltd,Diversified Metals & Mining,Mining,29.926156,116.565899,,17875,China,CHN,Palearctic,Temperate Broadleaf & Mixed Forests,Changjiang Plain evergreen forests,Yangtze,1,0.6679,0.5632,0.6679,0.4072,0.6718,0.4984
SFI,China National Building Materials Group Co Ltd,Jiangxi Nancheng Nanfang Cement Co Ltd,Diversified Metals & Mining,Mining,27.408521,116.669502,,17876,China,CHN,Indomalayan,Tropical & Subtropical Moist Broadleaf Forests,Jian Nan subtropical evergreen forests,Yangtze,1,0.7462,0.0651,0.7462,0.5137,0.75,0.5288
SFI,China National Building Materials Group Co Ltd,Jiangxi Pingxiang Nanfang Cement Co Ltd,Diversified Metals & Mining,Mining,27.651948,113.735237,,17877,China,CHN,Indomalayan,Tropical & Subtropical Moist Broadleaf Forests,Jian Nan subtropical evergreen forests,Xiang Jiang,0,0.5378,0.1368,0.6892,0.5122,0.5378,0.4572
SFI,China National Building Materials Group Co Ltd,Jiangxi Shanggao South Cement Co Ltd,Diversified Metals & Mining,Mining,28.180561,114.62973,,17878,China,CHN,Palearctic,Temperate Broadleaf & Mixed Forests,Changjiang Plain evergreen forests,Yangtze,0,0.522,0.2005,0.7277,0.4913,0.522,0.4753
SFI,China National Building Materials Group Co Ltd,Jiangxi Yongfeng South Cement Co Ltd,Diversified Metals & Mining,Mining,27.069471,115.741168,,17879,China,CHN,Indomalayan,Tropical & Subtropical Moist Broadleaf Forests,Jian Nan subtropical evergreen forests,Yangtze,0,0.5435,0.0578,0.7438,0.5262,0.5435,0.5094
SFI,China National Building Materials Group Co Ltd,Jining Zhonglian Cement Co Ltd,Diversified Metals & Mining,Mining,35.628638,117.316337,,17880,China,CHN,Palearctic,Temperate Broadleaf & Mixed Forests,Huang He Plain mixed forests,Yellow Sea & East China Sea,0,0.5489,0.0279,0.5489,0.4685,1,0.1917
SFI,China National Building Materials Group Co Ltd,Jiyuan Zhonglian Cement Co Ltd,Diversified Metals & Mining,Mining,35.140431,112.611989,,17881,China,CHN,Palearctic,Temperate Broadleaf & Mixed Forests,Central China Loess Plateau mixed forests,Yellow River,0,0.4471,0.0934,0.4389,0.4471,0.75,0.2875
SFI,China National Building Materials Group Co Ltd,Lanxi Nanfang Cement Co Ltd,Diversified Metals & Mining,Mining,29.200945,119.510059,,17882,China,CHN,Indomalayan,Tropical & Subtropical Moist Broadleaf Forests,Jian Nan subtropical evergreen forests,Yellow Sea & East China Sea,0,0.5626,0.2079,0.6492,0.4718,0.5626,0.5142
SFI,China National Building Materials Group Co Ltd,Lincheng Zhonglian Cement Co Ltd,Diversified Metals & Mining,Mining,37.45393,114.45838,,17883,China,CHN,Palearctic,Temperate Broadleaf & Mixed Forests,Central China Loess Plateau mixed forests,Yellow Sea & East China Sea,0,0.4958,0.026,0.4958,0.4489,1,0.3959
SFI,China National Building Materials Group Co Ltd,Lincheng Zhonglian Fushi Cement Co Ltd,Diversified Metals & Mining,Mining,37.525584,114.441562,,17884,China,CHN,Palearctic,Temperate Broadleaf & Mixed Forests,Central China Loess Plateau mixed forests,Yellow Sea & East China Sea,0,0.4929,0.0264,0.4929,0.444,1,0.3929
SFI,China National Building Materials Group Co Ltd,Luoyang Zhonglian Cement Co Ltd,Diversified Metals & Mining,Mining,34.159013,112.403142,,17885,China,CHN,Palearctic,Temperate Broadleaf & Mixed Forests,Qin Ling Mountains deciduous forests,Yellow Sea & East China Sea,1,0.6284,0.0791,0.6284,0.4998,1,0.2515
SFI,China National Building Materials Group Co Ltd,Nanjing Zhonglian Cement Co Ltd,Diversified Metals & Mining,Mining,31.971305,118.970578,,17886,China,CHN,Palearctic,Temperate Broadleaf & Mixed Forests,Changjiang Plain evergreen forests,Yangtze,0,0.4478,0.2449,0.4478,0.337,0.7294,0.4258
SFI,China National Building Materials Group Co Ltd,Nanyang Branch Of China United Cement Group Co Ltd,Diversified Metals & Mining,Mining,33.084004,112.211553,,17887,China,CHN,Palearctic,Temperate Broadleaf & Mixed Forests,Changjiang Plain evergreen forests,Han Shui,0,0.5753,0.0605,0.5753,0.4858,0.75,0.21
SFI,China National Building Materials Group Co Ltd,Sdic Hainan Cement Co Ltd,Diversified Metals & Mining,Mining,19.235544,108.999663,,17888,China,CHN,Indomalayan,Tropical & Subtropical Moist Broadleaf Forests,Hainan Island monsoon rain forests,South China Sea,1,0.7201,0.7689,0.6055,0.5596,0.7201,0.6739
SFI,China National Building Materials Group Co Ltd,Shaoyang Nanfang Cement Co Ltd,Diversified Metals & Mining,Mining,27.130987,111.49377,,17889,China,CHN,Indomalayan,Tropical & Subtropical Moist Broadleaf Forests,Jian Nan subtropical evergreen forests,Xiang Jiang,0,0.5566,0.0854,0.6666,0.4583,0.5566,0.3561
SFI,China National Building Materials Group Co Ltd,Shuozhou Zhonglian Cement Co Ltd,Diversified Metals & Mining,Mining,39.805178,112.508961,,17890,China,CHN,Palearctic,"Temperate Grasslands"",""Savannas & Shrublands",Mongolian-Manchurian grassland,Yellow Sea & East China Sea,0,0.4931,0.0043,0.4931,0.487,0.75,0.2898
SFI,China National Building Materials Group Co Ltd,Sinoma Hengda Cement Co Ltd,Diversified Metals & Mining,Mining,23.130214,111.768823,,17891,China,CHN,Indomalayan,Tropical & Subtropical Moist Broadleaf Forests,Jian Nan subtropical evergreen forests,Zhu Jiang,0,0.5352,0.144,0.6581,0.5186,0.5352,0.4903
SFI,China National Building Materials Group Co Ltd,Sinoma Luoding Cement Co Ltd,Diversified Metals & Mining,Mining,22.742819,111.732139,,17892,China,CHN,Indomalayan,Tropical & Subtropical Moist Broadleaf Forests,Jian Nan subtropical evergreen forests,Zhu Jiang,0,0.5323,0.0342,0.6687,0.5203,0.5323,0.4782
SFI,China National Building Materials Group Co Ltd,Tai'an Zhonglian Cement Co Ltd,Diversified Metals & Mining,Mining,36.191336,116.892517,,17893,China,CHN,Palearctic,Temperate Broadleaf & Mixed Forests,Huang He Plain mixed forests,Yellow River,0,0.5482,0.1196,0.5482,0.4421,1,0.2382
SFI,China National Building Materials Group Co Ltd,Tengzhou Zhonglian Cement Co Ltd,Diversified Metals & Mining,Mining,35.021182,117.347123,,17894,China,CHN,Palearctic,Temperate Broadleaf & Mixed Forests,Huang He Plain mixed forests,Yellow Sea & East China Sea,0,0.5339,0.3702,0.5339,0.4224,1,0.2134
SFI,China National Building Materials Group Co Ltd,Tongliao Zhonglian Cement Co Ltd,Diversified Metals & Mining,Mining,42.852202,120.687764,,17895,China,CHN,Palearctic,Temperate Broadleaf & Mixed Forests,Northeast China Plain deciduous forests,Liao He,1,0.7419,0.0153,0.7419,0.5165,0.75,0.2467
SFI,China National Building Materials Group Co Ltd,Wuhai Saima Cement Co Ltd,Diversified Metals & Mining,Mining,39.355998,106.840623,,17896,China,CHN,Palearctic,Montane Grasslands & Shrublands,Ordos Plateau steppe,Yellow River,0,0.5725,0.0241,0.7863,0.4963,0.5725,0.1164
SFI,China National Building Materials Group Co Ltd,Wuhai Xishui Cement Co Ltd,Diversified Metals & Mining,Mining,39.438069,106.81908,,17897,China,CHN,Palearctic,Montane Grasslands & Shrublands,Ordos Plateau steppe,Yellow River,0,0.5725,0.0238,0.7899,0.4896,0.5725,0.121
SFI,China National Building Materials Group Co Ltd,Xin'an Zhonglian Wanji Cement Co Ltd,Diversified Metals & Mining,Mining,34.741398,112.048737,,17898,China,CHN,Palearctic,Temperate Broadleaf & Mixed Forests,Huang He Plain mixed forests,Yellow River,0,0.5086,0.0873,0.5086,0.4648,0.75,0.3078
SFI,China National Building Materials Group Co Ltd,Xintai Zhonglian Taifeng Cement Co Ltd,Diversified Metals & Mining,Mining,35.781709,117.766258,,17899,China,CHN,Palearctic,Temperate Broadleaf & Mixed Forests,Huang He Plain mixed forests,Yellow River,0,0.5919,0.0288,0.5919,0.4573,1,0.2237
SFI,China National Building Materials Group Co Ltd,Yantai Qixia Zhonglian Cement Co Ltd,Diversified Metals & Mining,Mining,37.486988,121.061614,,17900,China,CHN,Palearctic,Temperate Broadleaf & Mixed Forests,Huang He Plain mixed forests,Yellow Sea & East China Sea,0,0.5569,0.0201,0.5569,0.4465,0.7376,0.2806
SFI,China National Building Materials Group Co Ltd,Yinan Zhonglian Cement Co Ltd,Diversified Metals & Mining,Mining,35.675366,118.281929,,17901,China,CHN,Palearctic,Temperate Broadleaf & Mixed Forests,Huang He Plain mixed forests,Yellow Sea & East China Sea,0,0.5908,0.0281,0.5908,0.4868,0.75,0.1962
SFI,China National Building Materials Group Co Ltd,Zhejiang Cement Co Ltd,Diversified Metals & Mining,Mining,30.125698,120.311397,,17902,China,CHN,Palearctic,Temperate Broadleaf & Mixed Forests,Changjiang Plain evergreen forests,Yellow Sea & East China Sea,0,0.5474,0.4574,0.549,0.3608,0.5474,0.5362
SFI,China National Building Materials Group Co Ltd,Zhejiang Tianma Cement Co Ltd,Diversified Metals & Mining,Mining,28.941969,118.491982,,17903,China,CHN,Indomalayan,Tropical & Subtropical Moist Broadleaf Forests,Jian Nan subtropical evergreen forests,Yellow Sea & East China Sea,1,0.7134,0.4862,0.7134,0.7228,0.5626,0.5405
SFI,China National Building Materials Group Co Ltd,Zhejiang Tiger Eagle Cement Co Ltd,Diversified Metals & Mining,Mining,29.169091,119.571258,,17904,China,CHN,Indomalayan,Tropical & Subtropical Moist Broadleaf Forests,Jian Nan subtropical evergreen forests,Yellow Sea & East China Sea,0,0.5626,0.1737,0.6432,0.4425,0.5626,0.488
SFI,China National Building Materials Group Co Ltd,Shaoxing South Cement Co Ltd,Diversified Metals & Mining,Mining,30.135733,120.330806,,17905,China,CHN,Palearctic,Temperate Broadleaf & Mixed Forests,Changjiang Plain evergreen forests,Yellow Sea & East China Sea,0,0.5441,0.4523,0.5441,0.3585,0.5632,0.526
SFI,China National Building Materials Group Co Ltd,Bayannaoer Zhonglian Cement Co Ltd,Diversified Metals & Mining,Mining,40.654653,108.794004,,17906,China,CHN,Palearctic,Deserts & Xeric Shrublands,Alashan Plateau semi-desert,Yellow River,0,0.556,0.1414,0.7788,0.5161,0.556,0.1237
SFI,China National Building Materials Group Co Ltd,Chengwu Zhonglian Cement Co Ltd,Diversified Metals & Mining,Mining,34.941037,115.853247,,17907,China,CHN,Palearctic,Temperate Broadleaf & Mixed Forests,Huang He Plain mixed forests,Yellow Sea & East China Sea,0,0.5216,0,0.5216,0.5069,1,0.1197
SFI,China National Building Materials Group Co Ltd,Cixi Nanfang Cement Co Ltd,Diversified Metals & Mining,Mining,30.148734,121.214294,,17908,China,CHN,Palearctic,Temperate Broadleaf & Mixed Forests,Changjiang Plain evergreen forests,Yellow Sea & East China Sea,0,0.522,0.3285,0.522,0.411,0.632,0.3905
SFI,China National Building Materials Group Co Ltd,Dengzhou Zhonglian Cement Co Ltd,Diversified Metals & Mining,Mining,32.658557,112.038596,,17909,China,CHN,Palearctic,Temperate Broadleaf & Mixed Forests,Qin Ling Mountains deciduous forests,Han Shui,0,0.5372,0.0553,0.5372,0.4803,0.75,0.1843
SFI,China National Building Materials Group Co Ltd,Deqing Nanfang Cement Co Ltd,Diversified Metals & Mining,Mining,30.581061,120.189699,,17910,China,CHN,Palearctic,Temperate Broadleaf & Mixed Forests,Changjiang Plain evergreen forests,Yellow Sea & East China Sea,0,0.4083,0.3867,0.4083,0.3799,0.75,0.3912
SFI,China National Building Materials Group Co Ltd,Haining Sanshi Cement Co Ltd,Diversified Metals & Mining,Mining,30.454715,120.710736,,17911,China,CHN,Palearctic,Temperate Broadleaf & Mixed Forests,Changjiang Plain evergreen forests,Yellow Sea & East China Sea,0,0.4317,0.098,0.4106,0.4317,0.75,0.2652
SFI,Confidential,Confidential144,Diversified Metals & Mining,Mining,24.782393,102.621828,,19628,China,CHN,Palearctic,Tropical & Subtropical Moist Broadleaf Forests,Yunnan Plateau subtropical evergreen forests,Yangtze,1,0.6748,0.6748,0.7065,0.4232,0.5,0.5886
SFI,China National Building Materials Group Co Ltd,Huaibei Nanping Zhonglian Cement Co Ltd,Diversified Metals & Mining,Mining,33.515306,116.88043,,17912,China,CHN,Palearctic,Temperate Broadleaf & Mixed Forests,Huang He Plain mixed forests,Yellow Sea & East China Sea,0,0.5131,0.0377,0.5131,0.4552,1,0.1617
SFI,China National Building Materials Group Co Ltd,Huaibei Sipu Zhonglian Cement Co Ltd,Diversified Metals & Mining,Mining,33.731217,116.794254,,17913,China,CHN,Palearctic,Temperate Broadleaf & Mixed Forests,Huang He Plain mixed forests,Yellow Sea & East China Sea,0,0.5145,0.0367,0.5145,0.3928,1,0.1654
SFI,China National Building Materials Group Co Ltd,Huangshan Huishi Building Material Co Ltd,Diversified Metals & Mining,Mining,29.679576,118.237402,,17914,China,CHN,Palearctic,Temperate Broadleaf & Mixed Forests,Changjiang Plain evergreen forests,Yellow Sea & East China Sea,1,0.6203,0.2844,0.7836,0.5201,0.6203,0.5789
SFI,China National Building Materials Group Co Ltd,Hunan Guiyang Nanfang Cement Co Ltd,Diversified Metals & Mining,Mining,25.751919,112.774096,,17915,China,CHN,Indomalayan,Tropical & Subtropical Moist Broadleaf Forests,Jian Nan subtropical evergreen forests,Xiang Jiang,0,0.5663,0.2305,0.6712,0.4925,0.5663,0.4549
SFI,China National Building Materials Group Co Ltd,Hunan Yueyang Nanfang Cement Co Ltd,Diversified Metals & Mining,Mining,29.164945,113.004552,,17916,China,CHN,Palearctic,Temperate Broadleaf & Mixed Forests,Changjiang Plain evergreen forests,Xiang Jiang,1,0.6586,1,0.6586,0.467,0.5791,0.4838
SFI,China National Building Materials Group Co Ltd,Jiande Sanshi Songtao Cement Co Ltd,Diversified Metals & Mining,Mining,29.258095,119.261725,,17917,China,CHN,Palearctic,Temperate Broadleaf & Mixed Forests,Changjiang Plain evergreen forests,Yellow Sea & East China Sea,0,0.5883,0.427,0.7396,0.4964,0.5626,0.5883
SFI,China National Building Materials Group Co Ltd,Jiande Shanxiang Building Material Co Ltd,Diversified Metals & Mining,Mining,29.360042,119.229893,,17918,China,CHN,Palearctic,Temperate Broadleaf & Mixed Forests,Changjiang Plain evergreen forests,Yellow Sea & East China Sea,1,0.6638,0.6026,0.7757,0.511,0.5607,0.6638
SFI,China National Building Materials Group Co Ltd,Jiangsu Yicheng Nanfang Cement Co Ltd,Diversified Metals & Mining,Mining,31.399474,119.839351,,17919,China,CHN,Palearctic,Temperate Broadleaf & Mixed Forests,Changjiang Plain evergreen forests,Yellow Sea & East China Sea,0,0.5005,0.2345,0.5005,0.2656,0.7401,0.4692
SFI,China National Building Materials Group Co Ltd,Jiangxi Fuzhou South Cement Co Ltd,Diversified Metals & Mining,Mining,27.903675,116.420507,,17920,China,CHN,Palearctic,Temperate Broadleaf & Mixed Forests,Changjiang Plain evergreen forests,Yangtze,1,0.6634,0.0521,0.6634,0.4621,0.75,0.4169
SFI,China National Building Materials Group Co Ltd,Jiangxi Guixi Nanfang Cement Co Ltd,Diversified Metals & Mining,Mining,28.264659,117.145255,,17921,China,CHN,Palearctic,Temperate Broadleaf & Mixed Forests,Changjiang Plain evergreen forests,Yangtze,0,0.566,0.566,0.7068,0.4869,0.528,0.5264
SFI,China National Building Materials Group Co Ltd,Jiangxi Jishui Nanfang Cement Co Ltd,Diversified Metals & Mining,Mining,27.466853,115.267214,,17922,China,CHN,Palearctic,Temperate Broadleaf & Mixed Forests,Changjiang Plain evergreen forests,Yangtze,0,0.5435,0.0275,0.6565,0.4843,0.5435,0.4119
SFI,China National Building Materials Group Co Ltd,Jiangxi Jizhou Nanfang Cement Co Ltd,Diversified Metals & Mining,Mining,27.12226,114.867472,,17923,China,CHN,Palearctic,Temperate Broadleaf & Mixed Forests,Changjiang Plain evergreen forests,Yangtze,0,0.5482,0.0629,0.5947,0.4773,0.5482,0.4422
SFI,China National Building Materials Group Co Ltd,Jiangxi Nanchang Nanfang Cement Co Ltd,Diversified Metals & Mining,Mining,28.559721,115.94949,,17924,China,CHN,Palearctic,Temperate Broadleaf & Mixed Forests,Changjiang Plain evergreen forests,Yangtze,0,0.5589,0.315,0.5589,0.4217,0.75,0.4346
SFI,China National Building Materials Group Co Ltd,Jiangxi Xinyu South Building Material Co Ltd,Diversified Metals & Mining,Mining,27.779886,114.885214,,17925,China,CHN,Palearctic,Temperate Broadleaf & Mixed Forests,Changjiang Plain evergreen forests,Yangtze,0,0.5435,0.1335,0.6439,0.4867,0.5435,0.445
SFI,China National Building Materials Group Co Ltd,Jiangxi Xiushui Nanfang Cement Co Ltd,Diversified Metals & Mining,Mining,29.160128,114.629196,,17926,China,CHN,Indomalayan,Tropical & Subtropical Moist Broadleaf Forests,Jian Nan subtropical evergreen forests,Yangtze,1,0.617,0.1793,0.8195,0.5358,0.617,0.5472
SFI,China National Building Materials Group Co Ltd,Jiashan South Cement Co Ltd,Diversified Metals & Mining,Mining,30.971,120.774617,,17927,China,CHN,Palearctic,Temperate Broadleaf & Mixed Forests,Changjiang Plain evergreen forests,Yellow Sea & East China Sea,0,0.4313,0.0893,0.418,0.3778,0.7431,0.4313
SFI,China National Building Materials Group Co Ltd,Jiashan Tianning South Cement Co Ltd,Diversified Metals & Mining,Mining,30.901781,120.819259,,17928,China,CHN,Palearctic,Temperate Broadleaf & Mixed Forests,Changjiang Plain evergreen forests,Yellow Sea & East China Sea,0,0.4195,0.0787,0.4195,0.4003,0.7401,0.3976
SFI,China National Building Materials Group Co Ltd,Jiaxing Nanhu Nanfang Cement Co Ltd,Diversified Metals & Mining,Mining,30.80113,120.843339,,17929,China,CHN,Palearctic,Temperate Broadleaf & Mixed Forests,Changjiang Plain evergreen forests,Yellow Sea & East China Sea,0,0.4328,0.0865,0.4301,0.4328,0.7401,0.3554
SFI,China National Building Materials Group Co Ltd,Jiaxing South Cement Co Ltd,Diversified Metals & Mining,Mining,30.769852,120.858293,,17930,China,CHN,Palearctic,Temperate Broadleaf & Mixed Forests,Changjiang Plain evergreen forests,Yellow Sea & East China Sea,0,0.442,0.1047,0.4301,0.442,0.75,0.3358
SFI,China National Building Materials Group Co Ltd,Jiaxing Xiuzhou South Cement Co Ltd,Diversified Metals & Mining,Mining,30.716385,120.622002,,17931,China,CHN,Palearctic,Temperate Broadleaf & Mixed Forests,Changjiang Plain evergreen forests,Yellow Sea & East China Sea,0,0.4538,0.1138,0.4538,0.4346,0.75,0.3714
SFI,China National Building Materials Group Co Ltd,Lianyungang Banqiao Zhonglian Cement Co Ltd,Diversified Metals & Mining,Mining,34.613629,119.449217,,17932,China,CHN,Palearctic,Temperate Broadleaf & Mixed Forests,Huang He Plain mixed forests,Yellow Sea & East China Sea,0,0.5642,0.2871,0.4893,0.5642,0.7902,0.2632
SFI,China National Building Materials Group Co Ltd,Longyou Tianchishan Cement Manufacturing Co Ltd,Diversified Metals & Mining,Mining,29.245983,119.24581,,17933,China,CHN,Palearctic,Temperate Broadleaf & Mixed Forests,Changjiang Plain evergreen forests,Yellow Sea & East China Sea,0,0.5874,0.4102,0.7332,0.4952,0.5626,0.5874
SFI,China National Building Materials Group Co Ltd,Mengjin Zhonglian Cement Co Ltd,Diversified Metals & Mining,Mining,34.845198,112.547809,,17934,China,CHN,Palearctic,Temperate Broadleaf & Mixed Forests,Huang He Plain mixed forests,Yellow River,0,0.4747,0.0966,0.4747,0.4446,0.75,0.3274
SFI,China National Building Materials Group Co Ltd,Pinghu Xingge Cement Co Ltd,Diversified Metals & Mining,Mining,30.816758,121.095397,,17935,China,CHN,Palearctic,Temperate Broadleaf & Mixed Forests,Changjiang Plain evergreen forests,Yellow Sea & East China Sea,0,0.4489,0.0615,0.4083,0.4489,0.75,0.3121
SFI,China National Building Materials Group Co Ltd,Qingdao Jimo Zhonglian Cement Co Ltd,Diversified Metals & Mining,Mining,36.579702,120.325447,,17936,China,CHN,Palearctic,Temperate Broadleaf & Mixed Forests,Huang He Plain mixed forests,Yellow Sea & East China Sea,0,0.4883,0.2004,0.4883,0.3985,0.9258,0.1911
SFI,China National Building Materials Group Co Ltd,Rizhao Zhonglian Gangzhong Cement Co Ltd,Diversified Metals & Mining,Mining,35.369689,119.554148,,17937,,,,,,Yellow Sea & East China Sea,1,0.6148,0.1226,0.6148,0.436,0.9501,0.1739
SFI,China National Building Materials Group Co Ltd,Rizhao Zhonglian Port Cement Co Ltd,Diversified Metals & Mining,Mining,35.375184,119.557354,,17938,,,,,,Yellow Sea & East China Sea,1,0.6148,0.1226,0.6148,0.4365,0.9501,0.174
SFI,China National Building Materials Group Co Ltd,Shanghai Rongrong Industrial Co Ltd,Diversified Metals & Mining,Mining,30.910031,121.231759,,17939,China,CHN,Palearctic,Temperate Broadleaf & Mixed Forests,Changjiang Plain evergreen forests,Yellow Sea & East China Sea,0,0.4406,0.0611,0.392,0.4406,0.7401,0.2998
SFI,China National Building Materials Group Co Ltd,Sixian Zhonglian Cement Co Ltd,Diversified Metals & Mining,Mining,33.447978,117.877446,,17940,China,CHN,Palearctic,Temperate Broadleaf & Mixed Forests,Huang He Plain mixed forests,Yellow Sea & East China Sea,0,0.5276,0.257,0.5276,0.4399,1,0.1843
SFI,China National Building Materials Group Co Ltd,Suzhou Zhonglian Cement Co Ltd,Diversified Metals & Mining,Mining,33.801165,117.002924,,17941,China,CHN,Palearctic,Temperate Broadleaf & Mixed Forests,Huang He Plain mixed forests,Yellow Sea & East China Sea,0,0.511,0.0364,0.511,0.3556,1,0.1552
SFI,China National Building Materials Group Co Ltd,Tengzhou Tengnan Zhonglian Cement Co Ltd,Diversified Metals & Mining,Mining,34.908525,117.169955,,17942,China,CHN,Palearctic,Temperate Broadleaf & Mixed Forests,Huang He Plain mixed forests,Yellow Sea & East China Sea,1,0.6377,0.6377,0.5319,0.4064,1,0.2155
SFI,China National Building Materials Group Co Ltd,Tongxiang Nanfang Cement Co Ltd,Diversified Metals & Mining,Mining,30.524239,120.416866,,17943,China,CHN,Palearctic,Temperate Broadleaf & Mixed Forests,Changjiang Plain evergreen forests,Yellow Sea & East China Sea,0,0.4383,0.4383,0.4075,0.3675,0.5685,0.2449
SFI,China National Building Materials Group Co Ltd,Wuhe Zhonglian,Diversified Metals & Mining,Mining,33.168695,117.895834,,17944,China,CHN,Palearctic,Temperate Broadleaf & Mixed Forests,Changjiang Plain evergreen forests,Yellow Sea & East China Sea,0,0.5292,0.2825,0.5292,0.4333,1,0.2025
SFI,China National Building Materials Group Co Ltd,Wujiang Nanfang Cement Co Ltd,Diversified Metals & Mining,Mining,31.015002,120.647526,,17945,China,CHN,Palearctic,Temperate Broadleaf & Mixed Forests,Changjiang Plain evergreen forests,Yellow Sea & East China Sea,0,0.5038,0.094,0.4283,0.36,0.75,0.5038
SFI,China National Building Materials Group Co Ltd,Xiangshuilian Cement Co Ltd,Diversified Metals & Mining,Mining,34.228719,119.608103,,17946,China,CHN,Palearctic,Temperate Broadleaf & Mixed Forests,Huang He Plain mixed forests,Yellow Sea & East China Sea,0,0.5259,0.4364,0.5259,0.5156,0.9508,0.2577
SFI,China National Building Materials Group Co Ltd,Xixia Zhonglian Cement Co Ltd,Diversified Metals & Mining,Mining,33.320942,111.501242,,17947,China,CHN,Palearctic,Temperate Broadleaf & Mixed Forests,Qin Ling Mountains deciduous forests,Han Shui,1,0.6539,0.2192,0.7367,0.4833,0.6539,0.3076
SFI,China Tianrui Group Cement Co Ltd,Panjin Jinrun Cement Co Ltd,Diversified Metals & Mining,Mining,41.155895,122.168897,,18004,China,CHN,Palearctic,Temperate Broadleaf & Mixed Forests,Northeast China Plain deciduous forests,Liao He,1,0.684,0.684,0.5153,0.4403,0.7439,0.4587
SFI,China National Building Materials Group Co Ltd,Yexian Zhonglian Cement Co Ltd,Diversified Metals & Mining,Mining,33.615414,113.372382,,17948,China,CHN,Palearctic,Temperate Broadleaf & Mixed Forests,Changjiang Plain evergreen forests,Yellow Sea & East China Sea,0,0.5274,0.0323,0.5274,0.4929,1,0.1592
SFI,China National Building Materials Group Co Ltd,Yinzhou Zhonglian Cement Co Ltd,Diversified Metals & Mining,Mining,34.260891,117.714876,,17949,China,CHN,Palearctic,Temperate Broadleaf & Mixed Forests,Huang He Plain mixed forests,Yellow Sea & East China Sea,0,0.5139,0.0375,0.5139,0.4309,1,0.1683
SFI,China National Building Materials Group Co Ltd,Zhejiang Huxi Cement Co Ltd,Diversified Metals & Mining,Mining,30.460705,120.933522,,17950,China,CHN,,,,Yellow Sea & East China Sea,0,0.4958,0.4958,0.4108,0.45,0.75,0.216
SFI,China National Building Materials Group Co Ltd,Zhejiang Xiandu Cement Co Ltd,Diversified Metals & Mining,Mining,28.797003,120.218656,,17951,China,CHN,Indomalayan,Tropical & Subtropical Moist Broadleaf Forests,Jian Nan subtropical evergreen forests,Yellow Sea & East China Sea,0,0.5531,0.2515,0.7073,0.4268,0.5531,0.4931
SFI,China National Building Materials Group Co Ltd,Zhuji South Cement Co Ltd,Diversified Metals & Mining,Mining,29.814858,120.347015,,17952,China,CHN,Indomalayan,Tropical & Subtropical Moist Broadleaf Forests,Jian Nan subtropical evergreen forests,Yellow Sea & East China Sea,1,0.6191,0.4454,0.6167,0.4201,0.75,0.6191
SFI,China National Building Materials Group Co Ltd,Jiangxi Xingan South Cement Co Ltd,Diversified Metals & Mining,Mining,27.767243,115.395725,,17953,China,CHN,Palearctic,Temperate Broadleaf & Mixed Forests,Changjiang Plain evergreen forests,Yangtze,0,0.5435,0.0269,0.6374,0.4826,0.5435,0.3661
SFI,China National Building Materials Group Co Ltd,China National Building Materials Zambia Industrial Park,Diversified Metals & Mining,Mining,-15.55503,28.492053,,17954,Zambia,ZMB,Afrotropic,"Tropical & Subtropical Grasslands"",""Savannas & Shrublands",Dry miombo woodlands,Zambezi,0,0.4966,0.2055,0.886,0.4966,0.4336,0.4688
SFI,China National Building Materials Group Corporation (Cnbm Group),Pt Semen Grobogan Semarang,Diversified Metals & Mining,Mining,-7.089975,110.622539,,17955,Indonesia,IDN,Indomalayan,Tropical & Subtropical Moist Broadleaf Forests,Eastern Java-Bali rain forests,Java (541),0,0.5353,0.5353,0.4768,0.4489,0.8132,0.5099
SFI,China Resources Cement Holdings Ltd,China Resources Cement (Yongding) Ltd,Diversified Metals & Mining,Mining,24.826029,117.014467,,17956,China,CHN,Indomalayan,Tropical & Subtropical Moist Broadleaf Forests,Jian Nan subtropical evergreen forests,South China Sea,1,0.7547,0.2497,0.7547,0.5332,0.5285,0.7945
SFI,China Resources Cement Holdings Ltd,China Resources Cement (Guigang) Ltd,Diversified Metals & Mining,Mining,22.934966,109.564835,,17957,China,CHN,Indomalayan,Tropical & Subtropical Moist Broadleaf Forests,South China-Vietnam subtropical evergreen forests,Zhu Jiang,0,0.5016,0.1241,0.6032,0.4704,0.5016,0.4421
SFI,China Resources Cement Holdings Ltd,China Resources Cement (Fuchuan) Ltd,Diversified Metals & Mining,Mining,24.708562,111.390059,,17958,China,CHN,Indomalayan,Tropical & Subtropical Moist Broadleaf Forests,Jian Nan subtropical evergreen forests,Zhu Jiang,1,0.6901,0.6624,0.7079,0.5581,0.5165,0.6901
SFI,China Resources Cement Holdings Ltd,China Resources Cement (Fengkai) Ltd,Diversified Metals & Mining,Mining,23.243143,111.575119,,17959,China,CHN,Indomalayan,Tropical & Subtropical Moist Broadleaf Forests,Jian Nan subtropical evergreen forests,Zhu Jiang,0,0.5352,0.12,0.666,0.5204,0.5352,0.5014
SFI,China Resources Cement Holdings Ltd,China Resources Cement (Tianyang) Ltd,Diversified Metals & Mining,Mining,23.737718,106.778815,,17960,China,CHN,Indomalayan,Tropical & Subtropical Moist Broadleaf Forests,South China-Vietnam subtropical evergreen forests,Zhu Jiang,1,0.7066,0.4356,0.7066,0.5294,0.75,0.5948
SFI,China Resources Cement Holdings Ltd,China Resources Cement (Nanning) Ltd,Diversified Metals & Mining,Mining,23.037389,108.081907,,17961,China,CHN,Indomalayan,Tropical & Subtropical Moist Broadleaf Forests,South China-Vietnam subtropical evergreen forests,Zhu Jiang,0,0.5121,0.3526,0.557,0.4426,0.5121,0.4994
SFI,China Resources Cement Holdings Ltd,China Resources Cement (Longyan) Ltd,Diversified Metals & Mining,Mining,25.146517,117.159313,,17962,China,CHN,Indomalayan,Tropical & Subtropical Moist Broadleaf Forests,Jian Nan subtropical evergreen forests,South China Sea,1,0.7395,0.5699,0.7657,0.5271,0.6126,0.7395
SFI,China Resources Cement Holdings Ltd,China Resources Cement (Pingnan) Ltd,Diversified Metals & Mining,Mining,23.489914,110.496048,,17963,China,CHN,Indomalayan,Tropical & Subtropical Moist Broadleaf Forests,South China-Vietnam subtropical evergreen forests,Zhu Jiang,0,0.5521,0.5243,0.668,0.5089,0.5017,0.5521
SFI,China Resources Cement Holdings Ltd,China Resources Cement (Shangsi) Ltd,Diversified Metals & Mining,Mining,22.171185,107.928982,,17964,China,CHN,Indomalayan,Tropical & Subtropical Moist Broadleaf Forests,South China-Vietnam subtropical evergreen forests,Zhu Jiang,1,0.6912,0.6912,0.6339,0.5064,0.75,0.6337
SFI,China Resources Cement Holdings Ltd,China Resources Cement (Wuxuan) Ltd,Diversified Metals & Mining,Mining,23.515795,109.705269,,17965,China,CHN,Indomalayan,Tropical & Subtropical Moist Broadleaf Forests,South China-Vietnam subtropical evergreen forests,Zhu Jiang,1,0.6172,0.6172,0.6654,0.4849,0.5074,0.4795
SFI,China Resources Cement Holdings Ltd,China Resources Cement (Hepu) Co Ltd,Diversified Metals & Mining,Mining,21.73673,109.573362,,17966,,,,,,South China Sea,1,0.6066,0.552,0.6066,0.3847,0.7027,0.4909
SFI,China Resources Cement Holdings Ltd,China Resources Cement (Anshun) Co Ltd,Diversified Metals & Mining,Mining,26.349949,105.93249,,17967,China,CHN,Palearctic,Tropical & Subtropical Moist Broadleaf Forests,Guizhou Plateau broadleaf and mixed forests,Yangtze,0,0.5272,0.3813,0.7018,0.4427,0.5272,0.3888
SFI,China Resources Cement Holdings Ltd,China Resources Cement (Changzhi) Ltd,Diversified Metals & Mining,Mining,36.297887,113.138464,,17968,China,CHN,Palearctic,Temperate Broadleaf & Mixed Forests,Central China Loess Plateau mixed forests,Yellow Sea & East China Sea,1,0.6406,0.0656,0.6406,0.4224,0.75,0.4555
SFI,China Resources Cement Holdings Ltd,China Resources Cement (Fulong) Co Ltd,Diversified Metals & Mining,Mining,37.462842,110.95127,,17969,China,CHN,Palearctic,Temperate Broadleaf & Mixed Forests,Central China Loess Plateau mixed forests,Yellow River,1,0.75,0.0385,0.8317,0.4571,0.75,0.2955
SFI,China Resources Cement Holdings Ltd,China Resources Cement (Hongshuihe) Co Ltd,Diversified Metals & Mining,Mining,23.209965,109.155783,,17970,China,CHN,Indomalayan,Tropical & Subtropical Moist Broadleaf Forests,South China-Vietnam subtropical evergreen forests,Zhu Jiang,0,0.5119,0.1968,0.5912,0.4297,0.5119,0.4014
SFI,China Resources Cement Holdings Ltd,China Resources Cement (Huizhou) Ltd,Diversified Metals & Mining,Mining,23.642102,114.366638,,17971,China,CHN,Indomalayan,Tropical & Subtropical Moist Broadleaf Forests,Jian Nan subtropical evergreen forests,Zhu Jiang,1,0.6615,0.2814,0.6615,0.5786,0.5396,0.6899
SFI,China Resources Cement Holdings Ltd,China Resources Cement (Lianjiang) Co Ltd,Diversified Metals & Mining,Mining,21.643025,110.152792,,17972,China,CHN,Indomalayan,Tropical & Subtropical Moist Broadleaf Forests,South China-Vietnam subtropical evergreen forests,South China Sea,0,0.5269,0.1802,0.5269,0.444,0.6942,0.4241
SFI,China Resources Cement Holdings Ltd,China Resources Cement (Longyan Caoxi) Ltd,Diversified Metals & Mining,Mining,25.055917,117.058837,,17973,China,CHN,Indomalayan,Tropical & Subtropical Moist Broadleaf Forests,Jian Nan subtropical evergreen forests,South China Sea,1,0.7595,0.515,0.7595,0.5219,0.6126,0.7672
SFI,China Resources Cement Holdings Ltd,China Resources Cement (Luchuan) Ltd,Diversified Metals & Mining,Mining,22.559853,110.196576,,17974,China,CHN,Indomalayan,Tropical & Subtropical Moist Broadleaf Forests,South China-Vietnam subtropical evergreen forests,South China Sea,0,0.5306,0.0304,0.6419,0.5145,0.5059,0.5306
SFI,China Resources Cement Holdings Ltd,China Resources Cement (Luoding) Co Ltd,Diversified Metals & Mining,Mining,22.618681,111.723067,,17975,China,CHN,Indomalayan,Tropical & Subtropical Moist Broadleaf Forests,Jian Nan subtropical evergreen forests,Zhu Jiang,0,0.5323,0.0982,0.6821,0.529,0.5323,0.5016
SFI,China Resources Cement Holdings Ltd,China Resources Cement (Midu) Co Ltd,Diversified Metals & Mining,Mining,25.290296,100.549139,,17976,China,CHN,Palearctic,Tropical & Subtropical Moist Broadleaf Forests,Yunnan Plateau subtropical evergreen forests,Red (Pacific Ocean),1,0.6222,0.6057,0.7825,0.4923,0.5,0.6222
SFI,China Resources Cement Holdings Ltd,China Resources Cement (Zhangping) Co Ltd,Diversified Metals & Mining,Mining,25.277299,117.394263,,17977,China,CHN,Indomalayan,Tropical & Subtropical Moist Broadleaf Forests,Jian Nan subtropical evergreen forests,South China Sea,1,0.6741,0.4952,0.8151,0.5204,0.6126,0.6741
SFI,China Resources Cement Holdings Ltd,China Resources Cement Plant (Heqing) Co Ltd,Diversified Metals & Mining,Mining,26.669196,100.19484,,17978,China,CHN,Palearctic,Temperate Conifer Forests,Nujiang Langcang Gorge alpine conifer and mixed forests,Yangtze,1,0.8193,0.7174,0.8193,0.5233,0.5654,0.861
SFI,China Resources Cement Holdings Ltd,China Resources Cement Plant (Jinsha) Co Ltd,Diversified Metals & Mining,Mining,27.520101,106.553859,,17979,China,CHN,Palearctic,Tropical & Subtropical Moist Broadleaf Forests,Guizhou Plateau broadleaf and mixed forests,Yangtze,1,0.68,0.4776,0.68,0.4813,0.75,0.3223
SFI,China Resources Cement Holdings Ltd,China Resources Cement (Zhanjiang) Ltd,Diversified Metals & Mining,Mining,21.40626,110.263039,,17980,China,CHN,Indomalayan,Tropical & Subtropical Moist Broadleaf Forests,South China-Vietnam subtropical evergreen forests,South China Sea,0,0.4789,0.1084,0.4789,0.4375,0.6994,0.3934
SFI,China Resources Cement Holdings Ltd,China Resources Cement (Shantou) Ltd,Diversified Metals & Mining,Mining,23.326833,116.747178,,17981,China,CHN,,,,South China Sea,0,0.5306,0.4024,0.6148,0.4109,0.5306,0.4519
SFI,China Resources Cement Holdings Ltd,China Resources Cement (Dongguan) Ltd,Diversified Metals & Mining,Mining,22.894675,113.584333,,17982,China,CHN,,,,South China Sea,1,0.6148,0.3618,0.6148,0.343,0.5989,0.6337
SFI,China Resources Cement Holdings Ltd,China Resources Cement (Lianjiang) Co Ltd,Diversified Metals & Mining,Mining,26.249001,119.580219,,17983,China,CHN,Indomalayan,Tropical & Subtropical Moist Broadleaf Forests,Jian Nan subtropical evergreen forests,Yellow Sea & East China Sea,1,0.6919,0.7982,0.5928,0.4606,0.6919,0.5128
SFI,China Resources Cement Holdings Ltd,China Resources Cement (Quanzhou) Ltd,Diversified Metals & Mining,Mining,24.999031,118.791502,,17984,China,CHN,Indomalayan,Tropical & Subtropical Moist Broadleaf Forests,Jian Nan subtropical evergreen forests,South China Sea,0,0.5194,0.4193,0.5194,0.3952,0.6175,0.3393
SFI,Crh Plc,Finnsementti Oy,Diversified Metals & Mining,Mining,61.031247,28.174569,,18109,Finland,FIN,Palearctic,Boreal Forests/Taiga,Scandinavian and Russian taiga,Baltic Sea (654),1,0.6065,0.1091,0.7955,0.6065,0.4204,0.5777
SFI,China Resources Cement Holdings Ltd,China Resources Cement (Wuzhishan) Co Ltd,Diversified Metals & Mining,Mining,18.937759,109.539782,,17985,China,CHN,Indomalayan,Tropical & Subtropical Moist Broadleaf Forests,Hainan Island monsoon rain forests,South China Sea,1,0.9061,1,0.7009,0.5331,0.75,0.9061
SFI,China Resources Cement Holdings Ltd,China Resources Cement (Fangchenggang) Ltd,Diversified Metals & Mining,Mining,21.848321,108.463072,,17986,China,CHN,,,,South China Sea,1,0.6227,0.1816,0.6227,0.2013,0.7444,0.4416
SFI,China Tianrui Group Cement Co Ltd,Tianrui Group Nanzhao Cement Co Ltd,Diversified Metals & Mining,Mining,33.410232,112.321117,,17987,China,CHN,Palearctic,Temperate Broadleaf & Mixed Forests,Qin Ling Mountains deciduous forests,Han Shui,1,0.6732,0.1871,0.6732,0.5055,0.75,0.254
SFI,China Tianrui Group Cement Co Ltd,Tianrui Group Guangshan Cement Co Ltd,Diversified Metals & Mining,Mining,31.949452,114.630104,,17988,China,CHN,Palearctic,Temperate Broadleaf & Mixed Forests,Changjiang Plain evergreen forests,Yellow Sea & East China Sea,0,0.5975,0.0582,0.5975,0.5016,0.723,0.2449
SFI,China Tianrui Group Cement Co Ltd,Liaoyang Tianrui Cement Co Ltd,Diversified Metals & Mining,Mining,41.277623,123.287185,,17989,China,CHN,Palearctic,Temperate Broadleaf & Mixed Forests,Northeast China Plain deciduous forests,Liao He,0,0.5603,0.0268,0.5603,0.3901,0.75,0.4062
SFI,China Tianrui Group Cement Co Ltd,Tianrui Group Yuzhou Cement Co Ltd,Diversified Metals & Mining,Mining,34.299281,113.416752,,17990,China,CHN,Palearctic,Temperate Broadleaf & Mixed Forests,Huang He Plain mixed forests,Yellow Sea & East China Sea,0,0.5389,0.0059,0.5129,0.5389,1,0.1658
SFI,China Tianrui Group Cement Co Ltd,Ruzhou Tianrui Group Cement Co Ltd,Diversified Metals & Mining,Mining,34.121937,112.827104,,17991,China,CHN,Palearctic,Temperate Broadleaf & Mixed Forests,Huang He Plain mixed forests,Yellow Sea & East China Sea,0,0.5741,0.0352,0.5741,0.473,1,0.1811
SFI,China Tianrui Group Cement Co Ltd,Dalian Tianrui Cement Co Ltd,Diversified Metals & Mining,Mining,39.581583,121.434166,,17992,China,CHN,Palearctic,Temperate Broadleaf & Mixed Forests,Northeast China Plain deciduous forests,Yellow Sea & East China Sea,1,0.6148,0.1788,0.6148,0,0.7195,0.1834
SFI,China Tianrui Group Cement Co Ltd,Tianrui Group Zhengzhou Cement Co Ltd,Diversified Metals & Mining,Mining,34.656464,113.371716,,17993,China,CHN,Palearctic,Temperate Broadleaf & Mixed Forests,Huang He Plain mixed forests,Yellow River,0,0.4963,0.0426,0.4963,0.4155,1,0.1936
SFI,China Tianrui Group Cement Co Ltd,Pingdingshan Ruiping Shilong Cement Co Ltd,Diversified Metals & Mining,Mining,33.883746,112.897971,,17994,China,CHN,Palearctic,Temperate Broadleaf & Mixed Forests,Huang He Plain mixed forests,Yellow Sea & East China Sea,0,0.5822,0.0352,0.5822,0.4871,1,0.1789
SFI,China Tianrui Group Cement Co Ltd,Weihui Tianrui Cement Co Ltd,Diversified Metals & Mining,Mining,35.433052,114.037664,,17995,China,CHN,Palearctic,Temperate Broadleaf & Mixed Forests,Central China Loess Plateau mixed forests,Yellow Sea & East China Sea,0,0.5055,0.1169,0.5055,0.489,1,0.3579
SFI,China Tianrui Group Cement Co Ltd,Tianrui Group Xiaoxian Cement Co Ltd,Diversified Metals & Mining,Mining,34.13172,117.018244,,17996,China,CHN,Palearctic,Temperate Broadleaf & Mixed Forests,Huang He Plain mixed forests,Yellow Sea & East China Sea,0,0.5096,0.2213,0.5096,0.372,1,0.1697
SFI,China Tianrui Group Cement Co Ltd,Haicheng First Cement Co Ltd,Diversified Metals & Mining,Mining,40.81915,122.679399,,17997,China,CHN,Palearctic,Temperate Broadleaf & Mixed Forests,Northeast China Plain deciduous forests,Liao He,0,0.5879,0.2145,0.5879,0.4274,0.7126,0.3372
SFI,China Tianrui Group Cement Co Ltd,Henan Yongan Cement Co Ltd,Diversified Metals & Mining,Mining,34.690729,112.93392,,17998,China,CHN,Palearctic,Temperate Broadleaf & Mixed Forests,Huang He Plain mixed forests,Yellow River,0,0.5333,0.0574,0.5333,0.4567,0.75,0.0428
SFI,China Tianrui Group Cement Co Ltd,Liaoyang Tianrui Liaota Cement Co Ltd,Diversified Metals & Mining,Mining,41.314542,123.367797,,17999,China,CHN,Palearctic,Temperate Broadleaf & Mixed Forests,Northeast China Plain deciduous forests,Liao He,0,0.5511,0.0268,0.5511,0.3873,0.75,0.4536
SFI,China Tianrui Group Cement Co Ltd,Tianrui Group Cement (Linru) Co Ltd,Diversified Metals & Mining,Mining,34.270982,112.619899,,18000,China,CHN,Palearctic,Temperate Broadleaf & Mixed Forests,Qin Ling Mountains deciduous forests,Yellow Sea & East China Sea,0,0.5722,0.0142,0.5722,0.4814,1,0.2012
SFI,China Tianrui Group Cement Co Ltd,Tianrui Group Yuzhou Cement Company,Diversified Metals & Mining,Mining,34.141317,113.422937,,18001,China,CHN,Palearctic,Temperate Broadleaf & Mixed Forests,Huang He Plain mixed forests,Yellow Sea & East China Sea,0,0.5058,0.0049,0.5058,0.4895,1,0.1498
SFI,China Tianrui Group Cement Co Ltd,Tianrui Xindeng Zhengzhou Cement Co Ltd,Diversified Metals & Mining,Mining,34.392625,113.237962,,18002,China,CHN,Palearctic,Temperate Broadleaf & Mixed Forests,Huang He Plain mixed forests,Yellow Sea & East China Sea,0,0.5308,0.0119,0.5308,0.4899,1,0.1843
SFI,China Tianrui Group Cement Co Ltd,Liaoyang Tianrui Chengxing Cement Co Ltd,Diversified Metals & Mining,Mining,41.358192,123.300948,,18003,China,CHN,Palearctic,Temperate Broadleaf & Mixed Forests,Northeast China Plain deciduous forests,Liao He,0,0.5331,0.0268,0.5331,0.38,0.75,0.3479
SFI,China Tianrui Group Cement Co Ltd,Pingdingshan Tianrui Yaodian Cement Co Ltd,Diversified Metals & Mining,Mining,33.731854,113.238889,,18005,China,CHN,Palearctic,Temperate Broadleaf & Mixed Forests,Huang He Plain mixed forests,Yellow Sea & East China Sea,0,0.5302,0.0347,0.5302,0.487,1,0.1555
SFI,China Tianrui Group Cement Co Ltd,Shenyang Tiger Cement Co Ltd,Diversified Metals & Mining,Mining,41.64003,123.391589,,18006,China,CHN,Palearctic,Temperate Broadleaf & Mixed Forests,Northeast China Plain deciduous forests,Liao He,0,0.4768,0.0385,0.4768,0.3612,0.75,0.2872
SFI,China Tianrui Group Cement Co Ltd,Tianjin Tianrui Cement Co Ltd,Diversified Metals & Mining,Mining,38.640147,117.392155,,18007,China,CHN,Palearctic,Temperate Broadleaf & Mixed Forests,Huang He Plain mixed forests,Yellow Sea & East China Sea,1,0.7629,0.7629,0.4932,0.3962,0.9236,0.4492
SFI,China Tianrui Group Cement Co Ltd,Tianrui Group Nanzhao Cement Co Ltd,Diversified Metals & Mining,Mining,33.301953,112.638997,,18008,China,CHN,Palearctic,Temperate Broadleaf & Mixed Forests,Changjiang Plain evergreen forests,Han Shui,0,0.5825,0.0341,0.5825,0.5009,0.75,0.2075
SFI,Huaxin Cement Co Ltd,Huaxin Cement (Henan Xinyang) Co Ltd,Diversified Metals & Mining,Mining,31.917594,114.02431,,18509,China,CHN,Palearctic,Temperate Broadleaf & Mixed Forests,Changjiang Plain evergreen forests,Yellow Sea & East China Sea,1,0.6174,0.0537,0.6174,0.4949,0.723,0.2741
SFI,Huaxin Cement Co Ltd,Huaxin Cement Wuxue Co Ltd,Diversified Metals & Mining,Mining,29.893953,115.443373,,18510,China,CHN,Palearctic,Temperate Broadleaf & Mixed Forests,Changjiang Plain evergreen forests,Yangtze,1,0.6051,0.5578,0.6507,0.466,0.6051,0.4631
SFI,Huaxin Cement Co Ltd,Huaxin Cement Huangshi Co Ltd,Diversified Metals & Mining,Mining,30.192933,115.058655,,18511,China,CHN,Palearctic,Temperate Broadleaf & Mixed Forests,Changjiang Plain evergreen forests,Yangtze,1,0.6051,0.1926,0.6174,0.4429,0.6051,0.4026
SFI,Huaxin Cement Co Ltd,Huaxin Cement Chongqing Fuling Co Ltd,Diversified Metals & Mining,Mining,29.591467,107.431126,,18512,China,CHN,Palearctic,Tropical & Subtropical Moist Broadleaf Forests,Guizhou Plateau broadleaf and mixed forests,Yangtze,1,0.6133,0.2421,0.6667,0.4979,0.6133,0.4148
SFI,Huaxin Cement Co Ltd,Huaxin Cement (Yangxin) Co Ltd,Diversified Metals & Mining,Mining,30.114916,115.272579,,18513,China,CHN,Palearctic,Temperate Broadleaf & Mixed Forests,Changjiang Plain evergreen forests,Yangtze,1,0.6051,0.127,0.6173,0.4337,0.6051,0.4153
SFI,Huaxin Cement Co Ltd,Huaxin Cement (Chibi) Co Ltd,Diversified Metals & Mining,Mining,29.742366,113.985854,,18514,China,CHN,Palearctic,Temperate Broadleaf & Mixed Forests,Changjiang Plain evergreen forests,Yangtze,1,0.671,0.0884,0.6832,0.4712,0.671,0.493
SFI,Huaxin Cement Co Ltd,Huaxin Cement Yunlong Co Ltd,Diversified Metals & Mining,Mining,25.620055,99.094852,,18515,China,CHN,Indomalayan,Tropical & Subtropical Moist Broadleaf Forests,Northern Indochina subtropical forests,Mekong,1,0.762,0.6706,0.8723,0.25,0.2842,0.762
SFI,Huaxin Cement Co Ltd,Huaxin Cement Lincang Co Ltd,Diversified Metals & Mining,Mining,23.899932,99.688232,,18516,China,CHN,Indomalayan,Tropical & Subtropical Moist Broadleaf Forests,Northern Indochina subtropical forests,Salween,1,0.7297,0.7297,0.8022,0.5009,0.5,0.5736
SFI,Huaxin Cement Co Ltd,Huaxin Cement Honghe Co Ltd,Diversified Metals & Mining,Mining,23.696975,103.242141,,18517,China,CHN,Palearctic,Tropical & Subtropical Moist Broadleaf Forests,Yunnan Plateau subtropical evergreen forests,Zhu Jiang,1,0.735,0.4867,0.7584,0.5333,0.735,0.3516
SFI,Huaxin Cement Co Ltd,Guizhou Shuicheng Cement Co,Diversified Metals & Mining,Mining,26.571939,104.941286,,18518,China,CHN,Palearctic,Tropical & Subtropical Moist Broadleaf Forests,Guizhou Plateau broadleaf and mixed forests,Yangtze,1,0.7257,0.2852,0.78,0.5222,0.5272,0.7257
SFI,Huaxin Cement Co Ltd,Huaxin Cement Lijiang Co Ltd,Diversified Metals & Mining,Mining,26.620871,101.454145,,18519,China,CHN,Palearctic,Tropical & Subtropical Moist Broadleaf Forests,Yunnan Plateau subtropical evergreen forests,Yangtze,1,0.6187,0.179,0.8369,0.4883,0.5654,0.6187
SFI,Huaxin Cement Co Ltd,Chongqing Lafarge Shui On Diwei Cement Co Ltd,Diversified Metals & Mining,Mining,29.338635,106.401066,,18520,China,CHN,Palearctic,Temperate Broadleaf & Mixed Forests,Daba Mountains evergreen forests,Yangtze,0,0.5324,0.5324,0.5114,0.3458,0.6259,0.3212
SFI,Huaxin Cement Co Ltd,Chongqing Huaxin Yanjing Cement Co Ltd,Diversified Metals & Mining,Mining,29.948981,106.362761,,18521,China,CHN,Palearctic,Temperate Broadleaf & Mixed Forests,Sichuan Basin evergreen broadleaf forests,Yalong Jiang,0,0.5042,0.1038,0.5042,0.407,0.6399,0.2695
SFI,Huaxin Cement Co Ltd,Huaxin Cement (Changyang) Co Ltd,Diversified Metals & Mining,Mining,30.521327,111.229041,,18522,China,CHN,Palearctic,Tropical & Subtropical Moist Broadleaf Forests,Guizhou Plateau broadleaf and mixed forests,Yangtze,0,0.5595,0.261,0.7451,0.4251,0.5595,0.4021
SFI,Huaxin Cement Co Ltd,Huaxin Cement (Diqing) Co Ltd,Diversified Metals & Mining,Mining,27.541595,99.556958,,18523,China,CHN,Palearctic,Temperate Conifer Forests,Hengduan Mountains subalpine conifer forests,Yangtze,1,0.8665,0.751,0.9148,0.5261,0.5071,0.8665
SFI,Huaxin Cement Co Ltd,Huaxin Cement (Jinghong) Co Ltd,Diversified Metals & Mining,Mining,21.906467,101.051228,,18524,China,CHN,Indomalayan,Tropical & Subtropical Moist Broadleaf Forests,Northern Indochina subtropical forests,Mekong,1,0.8082,0.8082,0.8198,0.5889,0.6822,0.6957
SFI,Huaxin Cement Co Ltd,Huaxin Cement (Kunming Dongchuan) Co Ltd,Diversified Metals & Mining,Mining,26.130707,103.168809,,18525,China,CHN,Palearctic,Tropical & Subtropical Moist Broadleaf Forests,Yunnan Plateau subtropical evergreen forests,Yangtze,0,0.573,0.2418,0.8246,0.4906,0.5,0.573
SFI,Huaxin Cement Co Ltd,Huaxin Cement (Lengshuijiang) Co Ltd,Diversified Metals & Mining,Mining,27.621464,111.419666,,18526,China,CHN,Indomalayan,Tropical & Subtropical Moist Broadleaf Forests,Jian Nan subtropical evergreen forests,Xiang Jiang,0,0.5566,0.0854,0.6937,0.4993,0.5566,0.3999
SFI,Huaxin Cement Co Ltd,Huaxin Cement (Luzhou) Co Ltd,Diversified Metals & Mining,Mining,25.714919,112.893295,,18527,China,CHN,Indomalayan,Tropical & Subtropical Moist Broadleaf Forests,Jian Nan subtropical evergreen forests,Xiang Jiang,0,0.5663,0.2436,0.6814,0.4992,0.5663,0.4923
SFI,Huaxin Cement Co Ltd,Huaxin Cement (Quxian) Co Ltd,Diversified Metals & Mining,Mining,30.767029,107.060274,,18528,China,CHN,Palearctic,Temperate Broadleaf & Mixed Forests,Sichuan Basin evergreen broadleaf forests,Yalong Jiang,0,0.532,0.0452,0.5869,0.4649,0.532,0.3119
SFI,Huaxin Cement Co Ltd,Huaxin Cement (Xiangyang) Co Ltd,Diversified Metals & Mining,Mining,31.794833,111.89658,,18529,China,CHN,Palearctic,Temperate Broadleaf & Mixed Forests,Daba Mountains evergreen forests,Han Shui,1,0.6232,0.0692,0.6876,0.45,0.6232,0.3846
SFI,Huaxin Cement Co Ltd,Huaxin Cement (Yichang) Co Ltd,Diversified Metals & Mining,Mining,30.317354,111.493135,,18530,China,CHN,Palearctic,Tropical & Subtropical Moist Broadleaf Forests,Guizhou Plateau broadleaf and mixed forests,Yangtze,0,0.5991,0.163,0.6608,0.4397,0.5991,0.3296
SFI,Huaxin Cement Co Ltd,Huaxin Cement (Zhaotong) Co Ltd,Diversified Metals & Mining,Mining,27.442529,103.794044,,18531,China,CHN,Palearctic,Tropical & Subtropical Moist Broadleaf Forests,Yunnan Plateau subtropical evergreen forests,Yangtze,0,0.5874,0.5715,0.751,0.5006,0.5,0.5874
SFI,Huaxin Cement Co Ltd,Huaxin Cement (Zhuzhou) Co Ltd,Diversified Metals & Mining,Mining,27.553634,113.126645,,18532,China,CHN,Palearctic,Temperate Broadleaf & Mixed Forests,Changjiang Plain evergreen forests,Xiang Jiang,0,0.5378,0.0999,0.6393,0.4674,0.5378,0.4339
SFI,Huaxin Cement Co Ltd,Huaxin Cement (Zigui) Co Ltd,Diversified Metals & Mining,Mining,30.920549,110.709316,,18533,China,CHN,Palearctic,Temperate Broadleaf & Mixed Forests,Daba Mountains evergreen forests,Yangtze,0,0.5817,0.3025,0.7971,0.5327,0.5817,0.5804
SFI,Huaxin Cement Co Ltd,Huaxin Cement Dao Xian Ltd,Diversified Metals & Mining,Mining,25.60795,111.42199,,18534,China,CHN,Indomalayan,Tropical & Subtropical Moist Broadleaf Forests,Jian Nan subtropical evergreen forests,Xiang Jiang,1,0.6777,0.6777,0.7512,0.5286,0.5745,0.4473
SFI,Huaxin Cement Co Ltd,Huaxin Cement Daye Co Ltd,Diversified Metals & Mining,Mining,30.208389,114.858977,,18535,China,CHN,Palearctic,Temperate Broadleaf & Mixed Forests,Changjiang Plain evergreen forests,Yangtze,0,0.522,0.0814,0.522,0.4451,0.75,0.4218
SFI,Huaxin Cement Co Ltd,Huaxin Cement En Ping Ltd,Diversified Metals & Mining,Mining,22.026117,112.356406,,18536,China,CHN,Indomalayan,Tropical & Subtropical Moist Broadleaf Forests,South China-Vietnam subtropical evergreen forests,South China Sea,1,0.6017,0.2751,0.6017,0.4865,0.6913,0.5898
SFI,Huaxin Cement Co Ltd,Huaxin Cement Enshi Co Ltd,Diversified Metals & Mining,Mining,30.268679,109.436413,,18537,China,CHN,Palearctic,Tropical & Subtropical Moist Broadleaf Forests,Guizhou Plateau broadleaf and mixed forests,Yangtze,1,0.6338,0.33,0.8122,0.5254,0.5595,0.6338
SFI,Huaxin Cement Co Ltd,Huaxin Cement Fumin Co Ltd,Diversified Metals & Mining,Mining,25.229735,102.549576,,18538,China,CHN,Palearctic,Tropical & Subtropical Moist Broadleaf Forests,Yunnan Plateau subtropical evergreen forests,Yangtze,0,0.5665,0.4548,0.7719,0.4324,0.5,0.5665
SFI,Huaxin Cement Co Ltd,Huaxin Cement Hefeng National Building Material Co Ltd,Diversified Metals & Mining,Mining,29.826554,109.908444,,18539,China,CHN,Palearctic,Tropical & Subtropical Moist Broadleaf Forests,Guizhou Plateau broadleaf and mixed forests,Xiang Jiang,1,0.8294,0.4756,0.8371,0.5411,0.6541,0.8294
SFI,Huaxin Cement Co Ltd,Huaxin Cement Jianchuan Co Ltd,Diversified Metals & Mining,Mining,26.587838,99.932958,,18540,China,CHN,Palearctic,Temperate Conifer Forests,Nujiang Langcang Gorge alpine conifer and mixed forests,Mekong,1,0.8529,0.7921,0.8568,0.5244,0.4817,0.8529
SFI,Huaxin Cement Co Ltd,Huaxin Cement Sang Zhi Ltd,Diversified Metals & Mining,Mining,29.405916,110.2482,,18541,China,CHN,Palearctic,Tropical & Subtropical Moist Broadleaf Forests,Guizhou Plateau broadleaf and mixed forests,Xiang Jiang,1,0.716,0.716,0.8644,0.5151,0.6541,0.6877
SFI,Huaxin Cement Co Ltd,Huaxin Concrete (Wanyuan) Co Ltd,Diversified Metals & Mining,Mining,32.136481,108.068223,,18542,China,CHN,Palearctic,Temperate Broadleaf & Mixed Forests,Daba Mountains evergreen forests,Yalong Jiang,1,0.8578,0.3016,0.8883,0.5224,0.532,0.8578
SFI,Huaxin Cement Co Ltd,Huaxin Guizhou Dingxiao Special Cement Co Ltd,Diversified Metals & Mining,Mining,25.167761,105.037116,,18543,China,CHN,Palearctic,Tropical & Subtropical Moist Broadleaf Forests,Yunnan Plateau subtropical evergreen forests,Zhu Jiang,1,0.7349,0.3719,0.7349,0.5126,0.75,0.5146
SFI,Huaxin Cement Co Ltd,Huaxin Jinlong Cement (Li County) Co Ltd,Diversified Metals & Mining,Mining,32.752551,110.841097,,18544,China,CHN,Palearctic,Temperate Broadleaf & Mixed Forests,Qin Ling Mountains deciduous forests,Han Shui,1,0.6203,0.1312,0.7417,0.4953,0.6203,0.3352
SFI,Huaxin Cement Co Ltd,Yunnan Huaxin Jundong Cement Co Ltd,Diversified Metals & Mining,Mining,25.101186,102.903083,,18545,China,CHN,Palearctic,Tropical & Subtropical Moist Broadleaf Forests,Yunnan Plateau subtropical evergreen forests,Yangtze,0,0.5327,0.4128,0.6754,0.4279,0.5,0.5327
SFI,Huaxin Cement Co Ltd,Huaxin Cement (Chuxiong) Co Ltd,Diversified Metals & Mining,Mining,25.068883,101.573088,,18546,China,CHN,Palearctic,Tropical & Subtropical Moist Broadleaf Forests,Yunnan Plateau subtropical evergreen forests,Yangtze,1,0.75,0.7153,0.8038,0.5165,0.75,0.6218
SFI,Huaxin Cement Co Ltd,Huaxin Cement (Jingzhou) Co Ltd,Diversified Metals & Mining,Mining,30.247099,112.321899,,18547,China,CHN,Palearctic,Temperate Broadleaf & Mixed Forests,Changjiang Plain evergreen forests,Yangtze,0,0.5775,0.1001,0.5775,0.4528,0.7161,0.2458
SFI,Huaxin Cement Co Ltd,Huaxin Cement (Macheng) Co Ltd,Diversified Metals & Mining,Mining,31.135873,114.894846,,18548,China,CHN,Palearctic,Temperate Broadleaf & Mixed Forests,Changjiang Plain evergreen forests,Yangtze,1,0.6432,0.1046,0.6432,0.4637,0.75,0.3248
SFI,Huaxin Cement Co Ltd,Huaxin Cement (Nantong) Co Ltd,Diversified Metals & Mining,Mining,31.974124,120.857121,,18549,China,CHN,,,,Yellow Sea & East China Sea,0,0.4678,0.1207,0.4533,0.4678,0.7465,0.2657
SFI,Huaxin Cement Co Ltd,Huaxin Cement (Xiantao) Co Ltd,Diversified Metals & Mining,Mining,30.390413,113.42949,,18550,China,CHN,Palearctic,Temperate Broadleaf & Mixed Forests,Changjiang Plain evergreen forests,Han Shui,1,0.6232,0.347,0.6365,0.4711,0.6232,0.3125
SFI,Huaxin Cement Co Ltd,Huaxin Cement E Zhou Co Ltd,Diversified Metals & Mining,Mining,30.533073,114.760078,,18551,China,CHN,Palearctic,Temperate Broadleaf & Mixed Forests,Changjiang Plain evergreen forests,Yangtze,0,0.5555,0.0747,0.5555,0.4102,0.75,0.2759
SFI,Huaxin Cement Co Ltd,Huaxin Cement Honghe Co Ltd,Diversified Metals & Mining,Mining,23.400412,103.233822,,18552,China,CHN,Indomalayan,Tropical & Subtropical Moist Broadleaf Forests,Northern Indochina subtropical forests,Zhu Jiang,1,0.735,0.6453,0.7854,0.553,0.735,0.4186
SFI,Huaxin Cement Co Ltd,Huaxin Cement Honghe Co Ltd,Diversified Metals & Mining,Mining,24.930353,102.840932,,18553,China,CHN,Palearctic,Tropical & Subtropical Moist Broadleaf Forests,Yunnan Plateau subtropical evergreen forests,Yangtze,0,0.5,0.4708,0.6674,0.3956,0.5,0.4444
SFI,Huaxin Cement Co Ltd,Huaxin Cement Suizhou Co Ltd,Diversified Metals & Mining,Mining,31.755759,113.197478,,18554,China,CHN,Palearctic,Temperate Broadleaf & Mixed Forests,Changjiang Plain evergreen forests,Han Shui,1,0.6203,0.0401,0.6203,0.467,0.75,0.2727
SFI,Huaxin Cement Co Ltd,Huaxin Cement Xiangyang Xiangcheng Ltd,Diversified Metals & Mining,Mining,31.895544,112.149581,,18555,China,CHN,Palearctic,Temperate Broadleaf & Mixed Forests,Daba Mountains evergreen forests,Han Shui,0,0.5794,0.0628,0.5794,0.4491,0.6232,0.2643
SFI,Huaxin Cement Co Ltd,Huaxin Cement Yueyang Co Ltd,Diversified Metals & Mining,Mining,29.497966,113.199387,,18556,China,CHN,Palearctic,Temperate Broadleaf & Mixed Forests,Changjiang Plain evergreen forests,Yangtze,1,0.671,0.9732,0.6611,0.4671,0.671,0.4609
SFI,Huaxin Cement Co Ltd,Hunan Huaxinxiang Steel Cement Co Ltd,Diversified Metals & Mining,Mining,27.804029,112.917678,,18557,China,CHN,Palearctic,Temperate Broadleaf & Mixed Forests,Changjiang Plain evergreen forests,Xiang Jiang,0,0.5378,0.1118,0.6015,0.4212,0.5378,0.4069
SFI,Huaxin Cement Co Ltd,Panzhihua Huaxin Cement Co Ltd,Diversified Metals & Mining,Mining,26.52425,101.854559,,18558,China,CHN,Palearctic,Tropical & Subtropical Moist Broadleaf Forests,Yunnan Plateau subtropical evergreen forests,Yangtze,1,0.69,0.2361,0.7889,0.4902,0.69,0.5156
SFI,Huaxin Cement Co Ltd,Wuhan Wisco Huaxin Cement Co Ltd,Diversified Metals & Mining,Mining,30.638993,114.425916,,18559,China,CHN,Palearctic,Temperate Broadleaf & Mixed Forests,Changjiang Plain evergreen forests,Yangtze,0,0.5047,0.0777,0.5047,0.3779,0.6293,0.2985
SFI,Huaxin Cement Co Ltd,Cambodia Cement Chakrey Ting Factory Co Ltd,Diversified Metals & Mining,Mining,10.683438,104.267917,,18560,Cambodia,KHM,Indomalayan,Tropical & Subtropical Moist Broadleaf Forests,Cardamom Mountains rain forests,Gulf of Thailand,1,0.7505,0.7505,0.6852,0.4599,0.7877,0.446
SFI,Hugo Miebach Gmbh,Portlandzementwerk Wittekind Hugo Miebach Soehne Kg,Diversified Metals & Mining,Mining,51.595161,8.336089,,18561,Germany,DEU,Palearctic,Temperate Broadleaf & Mixed Forests,Western European broadleaf forests,Rhine (635),0,0.5589,0.748,0.5589,0.3506,0.5386,0.4329
SFI,Ibercem,Ibercem,Diversified Metals & Mining,Mining,36.720791,-6.085925,,18562,Spain,ESP,Palearctic,"Mediterranean Forests"",""Woodlands & Scrub",Southwest Iberian Mediterranean sclerophyllous and mixed forests,Iberian Peninsula (615),1,0.8123,0.8123,0.5574,0.4295,0.9119,0.5484
SFI,Independent Cement And Lime Pty Ltd,Independent Cement And Lime Pty Ltd,Diversified Metals & Mining,Mining,-37.821199,144.926994,,18563,Australia,AUS,Australasia,Temperate Broadleaf & Mixed Forests,Southeast Australia temperate forests,Australia (502),1,0.6856,0.7456,0.5211,0.3165,0.6856,0.4784
SFI,India Cements Ltd,India Cements Ltd,Diversified Metals & Mining,Mining,11.357619,79.223045,,18564,India,IND,Indomalayan,Deserts & Xeric Shrublands,Deccan thorn scrub forests,Bay of Bengal (254),0,0.5012,0.1627,0.3954,0.5012,0.805,0.2882
SFI,India Cements Ltd,India Cements Ltd,Diversified Metals & Mining,Mining,17.308165,77.474324,,18566,India,IND,Indomalayan,Tropical & Subtropical Dry Broadleaf Forests,Central Deccan Plateau dry deciduous forests,Bay of Bengal (254),0,0.544,0.0296,0.544,0.523,0.8355,0.1569
SFI,India Cements Ltd,India Cements Ltd,Diversified Metals & Mining,Mining,11.454468,77.828686,,18567,India,IND,Indomalayan,Tropical & Subtropical Dry Broadleaf Forests,South Deccan Plateau dry deciduous forests,Bay of Bengal (254),1,0.6657,0.3265,0.5153,0.6657,0.75,0.1813
SFI,India Cements Ltd,India Cements Ltd,Diversified Metals & Mining,Mining,8.78885,77.730918,,18568,India,IND,Indomalayan,Tropical & Subtropical Dry Broadleaf Forests,South Deccan Plateau dry deciduous forests,Bay of Bengal (254),1,0.6057,0.4655,0.6057,0.4619,0.8125,0.4145
SFI,India Cements Ltd,India Cements Ltd,Diversified Metals & Mining,Mining,16.696363,79.648627,,18569,India,IND,Indomalayan,Tropical & Subtropical Dry Broadleaf Forests,Central Deccan Plateau dry deciduous forests,Bay of Bengal (254),0,0.4992,0.1438,0.4992,0.496,0.7907,0.3251
SFI,India Cements Ltd,India Cements Ltd,Diversified Metals & Mining,Mining,14.642947,78.528902,,18570,India,IND,Indomalayan,Deserts & Xeric Shrublands,Deccan thorn scrub forests,Bay of Bengal (254),1,0.6095,0.3542,0.6095,0.5112,1,0.4185
SFI,India Cements Ltd,India Cements Ltd,Diversified Metals & Mining,Mining,23.603059,74.256034,,18571,India,IND,Indomalayan,Tropical & Subtropical Dry Broadleaf Forests,Khathiar-Gir dry deciduous forests,Arabian Sea (253),0,0.5456,0.0564,0.5456,0.5058,0.8402,0.2341
SFI,India Cements Ltd,India Cements Ltd,Diversified Metals & Mining,Mining,13.241161,80.291687,,18572,India,IND,Indomalayan,Deserts & Xeric Shrublands,Godavari-Krishna mangroves,Bay of Bengal (254),0,0.4443,0.1086,0.406,0.3706,1,0.4443
SFI,India Cements Ltd,India Cements Ltd,Diversified Metals & Mining,Mining,18.861883,76.542925,,18573,India,IND,Indomalayan,Deserts & Xeric Shrublands,Deccan thorn scrub forests,Godavari,0,0.5191,0.0556,0.518,0.5191,0.7885,0.1401
SFI,Industria Cementi Giovanni Rossi Spa,Industria Cementi Giovanni Rossi Spa,Diversified Metals & Mining,Mining,45.877086,11.967091,,18574,Italy,ITA,Palearctic,Temperate Conifer Forests,Alps conifer and mixed forests,Adriatic Sea (649),1,0.7489,0.8632,0.5497,0.3694,0.6821,0.7489
SFI,Industria Cementi Giovanni Rossi Spa,Industria Cementi Giovanni Rossi Spa,Diversified Metals & Mining,Mining,45.048628,9.717984,,18575,Italy,ITA,Palearctic,Temperate Broadleaf & Mixed Forests,Po Basin mixed forests,Po,1,0.6513,0.7977,0.4342,0.3865,0.6513,0.346
SFI,Inner Mongolia Mengxi Cement Co Ltd,Hailar Mengxi Cement Co Ltd,Diversified Metals & Mining,Mining,49.254792,119.865058,,18576,China,CHN,Palearctic,"Temperate Grasslands"",""Savannas & Shrublands",Mongolian-Manchurian grassland,Amur,0,0.4788,0.1781,0.8142,0.4788,0.4519,0.3726
SFI,Inteko Ao,Llc Atakaycement,Diversified Metals & Mining,Mining,44.793019,37.693727,,18577,Russia,RUS,Palearctic,Temperate Broadleaf & Mixed Forests,Crimean Submediterranean forest complex,Black Sea (687),0,0.5965,0.5965,0.5843,0.4075,0.7337,0.4728
SFI,Intercement Participacoes Sa,Loma Negra Compania Industrial Argentina Sa,Diversified Metals & Mining,Mining,-37.683682,-59.388818,,18578,Argentina,ARG,Neotropic,"Temperate Grasslands"",""Savannas & Shrublands",Humid Pampas,South Atlantic (372),1,0.6245,0.0661,0.6042,0.4789,0.7238,0.6245
SFI,Intercement Participacoes Sa,Loma Negra Compania Industrial Argentina Sa,Diversified Metals & Mining,Mining,-28.467957,-65.227789,,18579,Argentina,ARG,Neotropic,"Tropical & Subtropical Grasslands"",""Savannas & Shrublands",Dry Chaco,WMOBB 374,0,0.5794,0.2792,0.8257,0.5291,0.4501,0.5794
SFI,Intercement Participacoes Sa,Loma Negra Compania Industrial Argentina Sa,Diversified Metals & Mining,Mining,-37.038897,-60.294838,,18580,Argentina,ARG,Neotropic,"Temperate Grasslands"",""Savannas & Shrublands",Humid Pampas,Rio de la Plata,1,0.7126,0.0617,0.7803,0.4415,0.7126,0.5738
SFI,Intercement Participacoes Sa,Loma Negra Compania Industrial Argentina Sa,Diversified Metals & Mining,Mining,-36.99286,-60.276544,,18581,Argentina,ARG,Neotropic,"Temperate Grasslands"",""Savannas & Shrublands",Humid Pampas,Rio de la Plata,1,0.7126,0.0614,0.7752,0.4559,0.7126,0.5779
SFI,Intercement Participacoes Sa,Loma Negra Compania Industrial Argentina Sa,Diversified Metals & Mining,Mining,-31.549228,-68.675812,,18582,Argentina,ARG,Neotropic,"Temperate Grasslands"",""Savannas & Shrublands",Low Monte,"Salado, Colorado & Negro",0,0.5,0.1614,0.806,0.4078,0.5,0.4054
SFI,Intercement Participacoes Sa,Loma Negra Compania Industrial Argentina Sa,Diversified Metals & Mining,Mining,-36.938645,-60.165115,,18583,Argentina,ARG,Neotropic,"Temperate Grasslands"",""Savannas & Shrublands",Humid Pampas,Rio de la Plata,1,0.7126,0.0594,0.742,0.4692,0.7126,0.626
SFI,Intercement Participacoes Sa,Loma Negra Compania Industrial Argentina Sa,Diversified Metals & Mining,Mining,-38.896776,-70.035152,,18584,Argentina,ARG,Neotropic,"Temperate Grasslands"",""Savannas & Shrublands",Low Monte,"Salado, Colorado & Negro",0,0.541,0.4713,0.9211,0.541,0.5,0.4655
SFI,Intercement Participacoes Sa,Loma Negra Compania Industrial Argentina Sa,Diversified Metals & Mining,Mining,-33.387911,-60.133089,,18585,Argentina,ARG,Neotropic,"Temperate Grasslands"",""Savannas & Shrublands",Humid Pampas,Parana (365),1,0.6866,0.7533,0.5249,0.4673,0.6866,0.5224
SFI,Intercement Participacoes Sa,Intercement Brasil Sa,Diversified Metals & Mining,Mining,-24.518867,-48.856014,,18586,Brazil,BRA,Neotropic,Tropical & Subtropical Moist Broadleaf Forests,Araucaria moist forests,South Atlantic (353),1,0.8353,0.9607,0.8353,0.5368,0.4034,0.7474
SFI,Intercement Participacoes Sa,Intercement Brasil Sa,Diversified Metals & Mining,Mining,-20.473665,-56.72942,,18587,Brazil,BRA,Neotropic,"Tropical & Subtropical Grasslands"",""Savannas & Shrublands",{Cerrado},Paraguay (366),1,0.7066,0.6565,0.8576,0.6497,0.4001,0.7066
SFI,Intercement Participacoes Sa,Intercement Brasil Sa,Diversified Metals & Mining,Mining,-24.708727,-48.117464,,18588,Brazil,BRA,Neotropic,Tropical & Subtropical Moist Broadleaf Forests,Serra do Mar coastal forests,South Atlantic (353),1,0.981,0.9963,0.8804,0.5542,0.4034,0.981
SFI,Intercement Participacoes Sa,Intercement Brasil Sa,Diversified Metals & Mining,Mining,-10.518039,-40.330504,,18589,Brazil,BRA,Neotropic,Tropical & Subtropical Dry Broadleaf Forests,{Caatinga},South Atlantic (352),0,0.5497,0.5497,0.8187,0.5426,0.5042,0.4374
SFI,Intercement Participacoes Sa,Intercement Brasil Sa,Diversified Metals & Mining,Mining,-17.010255,-49.781312,,18590,Brazil,BRA,Neotropic,"Tropical & Subtropical Grasslands"",""Savannas & Shrublands",{Cerrado},Paranaiba,0,0.5006,0.1435,0.658,0.5006,0.25,0.4893
SFI,Intercement Participacoes Sa,Intercement Brasil Sa,Diversified Metals & Mining,Mining,-21.194785,-44.938742,,18591,Brazil,BRA,Neotropic,Tropical & Subtropical Moist Broadleaf Forests,Bahia interior forests,Grande,0,0.5503,0.4621,0.6656,0.5503,0.2834,0.4922
SFI,Intercement Participacoes Sa,Intercement Brasil Sa,Diversified Metals & Mining,Mining,-7.128394,-34.894188,,18592,Brazil,BRA,Neotropic,Tropical & Subtropical Moist Broadleaf Forests,Pernambuco interior forests,South Atlantic (350),1,0.6136,0.9029,0.5746,0.4212,0.5104,0.6136
SFI,Intercement Participacoes Sa,Intercement Brasil Sa,Diversified Metals & Mining,Mining,-19.627181,-44.025928,,18593,Brazil,BRA,Neotropic,"Tropical & Subtropical Grasslands"",""Savannas & Shrublands",{Cerrado},Sao Francisco,1,0.8694,0.8694,0.674,0.3851,0.45,0.8898
SFI,Intercement Participacoes Sa,Intercement Brasil Sa,Diversified Metals & Mining,Mining,-9.762307,-36.151178,,18594,Brazil,BRA,Neotropic,Tropical & Subtropical Moist Broadleaf Forests,Pernambuco coastal forests,South Atlantic (350),0,0.5962,0.7751,0.592,0,0.5962,0.5503
SFI,Intercement Participacoes Sa,Intercement Brasil Sa,Diversified Metals & Mining,Mining,-31.585375,-53.67145,,18595,Brazil,BRA,Neotropic,"Tropical & Subtropical Grasslands"",""Savannas & Shrublands",Uruguayan savanna,Laguna Merin,0,0.5388,0.2725,0.769,0.5068,0.5,0.5388
SFI,Intercement Participacoes Sa,Intercement Brasil Sa,Diversified Metals & Mining,Mining,-14.197803,-41.59798,,18596,Brazil,BRA,Neotropic,Tropical & Subtropical Dry Broadleaf Forests,{Caatinga},South Atlantic (352),0,0.4995,0.1941,0.8716,0.4995,0.4872,0.4341
SFI,Intercement Participacoes Sa,Intercement Brasil Sa,Diversified Metals & Mining,Mining,-23.826511,-46.364944,,18597,Brazil,BRA,Neotropic,Tropical & Subtropical Moist Broadleaf Forests,Serra do Mar coastal forests,South Atlantic (353),1,0.771,0.9807,0.5789,0.3262,0.7024,0.771
SFI,Intercement Participacoes Sa,Intercement Brasil Sa,Diversified Metals & Mining,Mining,-23.272361,-46.059585,,18598,Brazil,BRA,Neotropic,Tropical & Subtropical Moist Broadleaf Forests,Serra do Mar coastal forests,South Atlantic (352),1,0.7467,0.9696,0.6535,0.4727,0.4926,0.7467
SFI,Intercement Participacoes Sa,Intercement Brasil Sa,Diversified Metals & Mining,Mining,-29.925521,-51.280111,,18599,Brazil,BRA,Neotropic,"Tropical & Subtropical Grasslands"",""Savannas & Shrublands",Uruguayan savanna,South Atlantic (353),1,0.6521,0.6521,0.6733,0.3726,0.4569,0.5853
SFI,Intercement Participacoes Sa,Intercement Brasil Sa,Diversified Metals & Mining,Mining,-19.475578,-42.481219,,18600,Brazil,BRA,Neotropic,Tropical & Subtropical Moist Broadleaf Forests,Bahia interior forests,South Atlantic (352),1,0.6807,0.9212,0.6807,0.4897,0.2505,0.6757
SFI,Intercement Participacoes Sa,Intercement Brasil Sa,Diversified Metals & Mining,Mining,-12.960167,-38.475391,,18601,Brazil,BRA,Neotropic,Tropical & Subtropical Moist Broadleaf Forests,Bahia coastal forests,South Atlantic (352),1,0.6423,0.7412,0.6423,0.3759,0.6181,0.6248
SFI,Intercement Participacoes Sa,Ameriyah Cement Co Sae,Diversified Metals & Mining,Mining,30.881107,29.465165,,18602,Egypt,EGY,Palearctic,"Mediterranean Forests"",""Woodlands & Scrub",Mediterranean dry woodlands and steppe,Nile,1,0.6619,0.407,0.6619,0.4197,0.7711,0.3305
SFI,Intercement Participacoes Sa,Cimentos De Mocambique Sa,Diversified Metals & Mining,Mining,-19.65239,34.758298,,18603,Mozambique,MOZ,Afrotropic,Flooded Grasslands & Savannas,Zambezian coastal flooded savanna,Indian Ocean (189),1,0.7152,0.4011,0.8189,0,0.7152,0.6753
SFI,Intercement Participacoes Sa,Cimentos De Mocambique Sa,Diversified Metals & Mining,Mining,-25.957551,32.487886,,18604,Mozambique,MOZ,Afrotropic,Tropical & Subtropical Moist Broadleaf Forests,Maputaland coastal forests and woodlands,Umbeluzi,1,0.7654,0.8856,0.7654,0.4575,0.6844,0.7329
SFI,Intercement Participacoes Sa,Cimentos De Mocambique Sa,Diversified Metals & Mining,Mining,-14.519887,40.676866,,18605,Mozambique,MOZ,Afrotropic,Tropical & Subtropical Moist Broadleaf Forests,Southern Swahili coastal forests and woodlands,Indian Ocean (189),1,0.75,0.4678,0.767,0.75,0.7243,0.2401
SFI,Intercement Participacoes Sa,Cimpor Cimentos De Portugal Sgps Sa,Diversified Metals & Mining,Mining,38.922169,-9.009904,,18606,Portugal,PRT,Palearctic,"Mediterranean Forests"",""Woodlands & Scrub",Southwest Iberian Mediterranean sclerophyllous and mixed forests,Iberian Peninsula (614),1,0.6916,0.8064,0.5374,0.3396,0.6916,0.2478
SFI,Intercement Participacoes Sa,Cimpor Cimentos De Portugal Sgps Sa,Diversified Metals & Mining,Mining,37.135933,-8.100041,,18607,Portugal,PRT,Palearctic,"Mediterranean Forests"",""Woodlands & Scrub",Southwest Iberian Mediterranean sclerophyllous and mixed forests,Iberian Peninsula (615),1,0.7611,0.7611,0.7507,0.4094,1,0.3414
SFI,Intercement Participacoes Sa,Cimpor Cimentos De Portugal Sgps Sa,Diversified Metals & Mining,Mining,40.289074,-8.418212,,18608,Portugal,PRT,Palearctic,"Mediterranean Forests"",""Woodlands & Scrub",Southwest Iberian Mediterranean sclerophyllous and mixed forests,Iberian Peninsula (614),1,0.6734,0.6734,0.594,0.4139,0.75,0.4429
SFI,Aboitiz Equity Ventures Inc,Republic Cement & Building Materials Inc,Diversified Metals & Mining,Mining,14.543974,121.205298,,17310,Philippines,PHL,Indomalayan,Tropical & Subtropical Moist Broadleaf Forests,Luzon rain forests,Luzon Islands Group (554),1,0.6651,0.8633,0.604,0.278,0.6651,0.6202
SFI,Anhui Conch Cement Co Ltd,Baoshan Conch Cement Co Ltd,Diversified Metals & Mining,Mining,25.07279,99.286018,,17372,China,CHN,Indomalayan,Tropical & Subtropical Moist Broadleaf Forests,Northern Indochina subtropical forests,Salween,0,0.5707,0.1997,0.777,0.4823,0.4593,0.5707
SFI,Aboitiz Equity Ventures Inc,Republic Cement & Building Materials Inc,Diversified Metals & Mining,Mining,13.743475,121.183907,,17311,Philippines,PHL,Indomalayan,Tropical & Subtropical Moist Broadleaf Forests,Luzon rain forests,Luzon Islands Group (554),1,0.6252,0.6252,0.5508,0.3,0.6724,0.3989
SFI,Aboitiz Equity Ventures Inc,Republic Cement & Building Materials Inc,Diversified Metals & Mining,Mining,14.875138,121.088456,,17312,Philippines,PHL,Indomalayan,Tropical & Subtropical Moist Broadleaf Forests,Luzon rain forests,Luzon Islands Group (554),1,0.6895,0.8856,0.6455,0.3567,0.6355,0.6895
SFI,Aboitiz Equity Ventures Inc,Republic Cement & Building Materials Inc,Diversified Metals & Mining,Mining,14.852188,121.091085,,17313,Philippines,PHL,Indomalayan,Tropical & Subtropical Moist Broadleaf Forests,Luzon rain forests,Luzon Islands Group (554),1,0.6956,0.8873,0.6461,0.3537,0.6389,0.6956
SFI,Aboitiz Equity Ventures Inc,Republic Cement & Building Materials Inc,Diversified Metals & Mining,Mining,10.162166,123.704637,,17314,Philippines,PHL,Indomalayan,Tropical & Subtropical Moist Broadleaf Forests,Greater Negros-Panay rain forests,Central Visayas,1,0.7192,0.7737,0.6533,0.4161,0.7192,0.5256
SFI,Aboitiz Equity Ventures Inc,Republic Cement & Building Materials Inc,Diversified Metals & Mining,Mining,10.559209,124.020879,,17315,Philippines,PHL,Indomalayan,Tropical & Subtropical Moist Broadleaf Forests,Greater Negros-Panay rain forests,Central Visayas,1,0.7336,0.8694,0.0014,0.4072,0.7336,0.5648
SFI,Adelaide Brighton Ltd,Adelaide Brighton Cement Ltd,Diversified Metals & Mining,Mining,-34.502107,139.028952,,17316,Australia,AUS,Australasia,"Mediterranean Forests"",""Woodlands & Scrub",Flinders-Lofty montane woodlands,Australia (505),1,0.6309,0.2287,0.6309,0.5294,1,0.3793
SFI,Adelaide Brighton Ltd,Adelaide Brighton Cement Ltd,Diversified Metals & Mining,Mining,-34.831591,138.502971,,17317,Australia,AUS,Australasia,"Mediterranean Forests"",""Woodlands & Scrub",Eyre and York mallee,Australia (505),1,0.7739,0.7739,0.7503,0.3797,0.932,0.5156
SFI,Adelaide Brighton Ltd,Cockburn Cement Ltd,Diversified Metals & Mining,Mining,-32.147573,115.799112,,17318,Australia,AUS,Australasia,"Mediterranean Forests"",""Woodlands & Scrub",Southwest Australia woodlands,Australia (506),1,0.92,0.92,0.6375,0.5911,0.9323,0.7507
SFI,Adelaide Brighton Ltd,Cockburn Cement Ltd,Diversified Metals & Mining,Mining,-29.311239,114.944342,,17319,Australia,AUS,Australasia,"Mediterranean Forests"",""Woodlands & Scrub",Southwest Australia savanna,Australia (506),1,0.9101,0.142,0.9101,0.5067,0.9411,0.4753
SFI,Adelaide Brighton Ltd,Cockburn Cement Ltd,Diversified Metals & Mining,Mining,-32.211016,115.773712,,17320,Australia,AUS,Australasia,"Mediterranean Forests"",""Woodlands & Scrub",Southwest Australia woodlands,Australia (506),1,0.8815,0.8815,0.643,0.3124,0.9321,0.7588
SFI,Adelaide Brighton Ltd,Morgan Cement International Pty Ltd,Diversified Metals & Mining,Mining,-34.476949,150.91107,,17321,Australia,AUS,Australasia,Temperate Broadleaf & Mixed Forests,Eastern Australian temperate forests,Australia (502),1,0.8287,0.8457,0.7595,0.4229,0.5851,0.8287
SFI,Adelaide Brighton Ltd,Northern Cement Ltd,Diversified Metals & Mining,Mining,-12.481157,130.897256,,17322,Australia,AUS,Australasia,"Tropical & Subtropical Grasslands"",""Savannas & Shrublands",Arnhem Land tropical savanna,Australia (508),1,0.8512,0.6709,0.8536,0.4949,0.4538,0.8512
SFI,Adelaide Brighton Ltd,Cockburn Cement Ltd,Diversified Metals & Mining,Mining,-30.724275,121.497603,,17323,Australia,AUS,Australasia,"Mediterranean Forests"",""Woodlands & Scrub",Coolgardie woodlands,Western Plateau,1,0.9517,0.0566,0.9517,0.52,1,0.3878
SFI,Adelaide Brighton Ltd,Northern Cement Ltd,Diversified Metals & Mining,Mining,-14.979541,133.082037,,17324,Australia,AUS,Australasia,"Tropical & Subtropical Grasslands"",""Savannas & Shrublands",Victoria Plains tropical savanna,Australia (509),0,0.537,0.0949,0.9603,0.537,0.25,0.4243
SFI,Aditya Birla Management Corporation Pvt Ltd,Ultratech Cement Bahrain Co Wll,Diversified Metals & Mining,Mining,26.220002,50.656492,,17325,Bahrain,BHR,,,,Arabian Peninsula,1,0.6997,0.8861,0.6997,0.4063,0.5919,0.4217
SFI,Administraci√≥n Nacional De Combustibles Alcohol Y Portland (Ancap),Administraci√≥n Nacional De Combustibles Alcohol Y Portland (Ancap),Diversified Metals & Mining,Mining,-34.400505,-55.284705,,17326,Uruguay,URY,Neotropic,"Tropical & Subtropical Grasslands"",""Savannas & Shrublands",Uruguayan savanna,Rio de la Plata,1,0.8176,0.8618,0.8176,0.5045,0.5165,0.6635
SFI,Administraci√≥n Nacional De Combustibles Alcohol Y Portland (Ancap),Administraci√≥n Nacional De Combustibles Alcohol Y Portland (Ancap),Diversified Metals & Mining,Mining,-32.26368,-58.077014,,17327,Uruguay,URY,Neotropic,"Tropical & Subtropical Grasslands"",""Savannas & Shrublands",Uruguayan savanna,Uruguay,1,0.635,0.7754,0.635,0.508,0.25,0.4788
SFI,Afrisam (South Africa) Pty Ltd,Afrisam (South Africa) Pty Ltd,Diversified Metals & Mining,Mining,-26.183551,25.993887,,17328,South Africa,ZAF,Afrotropic,Montane Grasslands & Shrublands,Highveld grasslands,Orange,1,0.6208,0.1138,0.6874,0.5942,0.6208,0.2234
SFI,Afrisam (South Africa) Pty Ltd,Afrisam (South Africa) Pty Ltd,Diversified Metals & Mining,Mining,-28.32236,24.21603,,17329,South Africa,ZAF,Afrotropic,Deserts & Xeric Shrublands,Kalahari xeric savanna,Orange,0,0.5208,0.0884,0.8953,0.5208,0.5,0.286
SFI,Afrisam (South Africa) Pty Ltd,Afrisam (South Africa) Pty Ltd,Diversified Metals & Mining,Mining,-26.181636,27.884593,,17330,South Africa,ZAF,Afrotropic,Montane Grasslands & Shrublands,Highveld grasslands,Orange,1,0.7269,0.7269,0.4936,0.263,1,0.4833
SFI,Ag Cementos Balboa Sa,Ag Cementos Balboa Sa,Diversified Metals & Mining,Mining,38.3792,-6.483272,,17331,Spain,ESP,Palearctic,"Mediterranean Forests"",""Woodlands & Scrub",Iberian sclerophyllous and semi-deciduous forests,Guadiana,1,0.6913,0.6913,0.7148,0.4789,0.6565,0.3108
SFI,Ahlia Cement Co,Ahlia Cement Co,Diversified Metals & Mining,Mining,32.633815,14.221548,,17332,Libya,LBY,Palearctic,"Mediterranean Forests"",""Woodlands & Scrub",Mediterranean dry woodlands and steppe,Mediterranean Sea (161),1,0.7419,0.6322,0.7419,0.4534,0.9509,0.1421
SFI,Ahlia Cement Co,Ahlia Cement Co,Diversified Metals & Mining,Mining,32.52035,14.325074,,17333,Libya,LBY,Palearctic,"Mediterranean Forests"",""Woodlands & Scrub",Mediterranean dry woodlands and steppe,Mediterranean Sea (161),1,0.7713,0.5232,0.7713,0.4617,0.9509,0.1175
SFI,Ahlia Cement Co,Ahlia Cement Co,Diversified Metals & Mining,Mining,32.42371,14.485477,,17334,Libya,LBY,Palearctic,"Mediterranean Forests"",""Woodlands & Scrub",Mediterranean dry woodlands and steppe,Mediterranean Sea (161),1,0.787,0.2731,0.787,0.4725,0.9509,0.1094
SFI,Akmenes Cementas Ab,Akmenes Cementas Ab,Diversified Metals & Mining,Mining,56.314379,22.917322,,17335,Lithuania,LTU,Palearctic,Temperate Broadleaf & Mixed Forests,Sarmatic mixed forests,Baltic Sea (673),1,0.6449,0.5781,0.6608,0.4978,0.6449,0.5282
SFI,Al Madina Cement Company Llc,Al Madina Cement Company Llc,Diversified Metals & Mining,Mining,36.028038,139.095128,,17336,Japan,JPN,Palearctic,Temperate Broadleaf & Mixed Forests,Taiheiyo evergreen forests,Honshu Island (288),0,0.5662,0.9679,0.5662,0.1592,0.5,0.4635
SFI,Al Maysarah Group,Al Maysarah Group,Diversified Metals & Mining,Mining,34.257402,41.212474,,17337,Iraq,IRQ,Palearctic,Deserts & Xeric Shrublands,Mesopotamian shrub desert,Euphrates & Tigris in Asia,0,0.5568,0.0158,0.9328,0.5355,0.5568,0.0507
SFI,Al Maysarah Group,Al Maysarah Group,Diversified Metals & Mining,Mining,33.591386,42.504563,,17338,Iraq,IRQ,Palearctic,Deserts & Xeric Shrublands,Mesopotamian shrub desert,Euphrates & Tigris in Asia,1,0.8005,0.3758,0.8963,0.5162,0.8005,0.08
SFI,Anhui Conch Cement Co Ltd,Anhui Hailuo Cement Baimashan Cement Plant Co Ltd,Diversified Metals & Mining,Mining,31.229955,118.380624,,17339,China,CHN,Palearctic,Temperate Broadleaf & Mixed Forests,Changjiang Plain evergreen forests,Yangtze,0,0.5665,0.3885,0.5665,0.4193,0.6652,0.5165
SFI,Anhui Conch Cement Co Ltd,Qiyang Conch Cement Co Ltd,Diversified Metals & Mining,Mining,26.720854,111.833275,,17340,China,CHN,Indomalayan,Tropical & Subtropical Moist Broadleaf Forests,Jian Nan subtropical evergreen forests,Xiang Jiang,0,0.5688,0.0923,0.6359,0.4565,0.5688,0.3412
SFI,Anhui Conch Cement Co Ltd,Wuhu Conch Cement Co Ltd,Diversified Metals & Mining,Mining,31.137582,118.169276,,17341,China,CHN,Palearctic,Temperate Broadleaf & Mixed Forests,Changjiang Plain evergreen forests,Yangtze,0,0.5778,0.1591,0.5778,0.422,0.6647,0.4871
